name	lat	lon
DAAD	35.3313888888889	4.20444444444444
DAAE	36.7119444444444	5.06944444444444
DAAG	36.6938333333333	3.21455555555556
DAAJ	24.2930555555556	9.45194444444444
DAAP	26.7236111111111	8.61777777777778
DAAS	36.1786111111111	5.33
DAAT	22.8111111111111	5.45083333333333
DAAV	36.7944444444444	5.87361111111111
DABB	36.8222222222222	7.80944444444444
DABC	36.2852777777778	6.61916666666667
DABS	35.4326361111111	8.1256
DABT	35.7591666666667	6.3225
DAOB	35.3413888888889	1.46694444444444
DAOF	27.7	-8.16666666666667
DAOI	36.2169444444444	1.34
DAON	35.0152777777778	-1.45083333333333
DAOO	35.6272222222222	-0.611388888888889
DAOR	31.6505694444444	-2.25315277777778
DAOV	35.2169444444444	0.148333333333333
DAOY	33.7208333333333	1.09138888888889
DATG	19.5688888888889	5.74888888888889
DATM	21.375	0.923888888888889
DAUA	27.8391666666667	-0.185277777777778
DAUB	34.8016666666667	5.74166666666667
DAUE	30.5688888888889	2.86472222222222
DAUG	32.3816666666667	3.79944444444444
DAUH	31.6738888888889	6.14055555555556
DAUI	27.2536111111111	2.51083333333333
DAUK	33.06	6.08722222222222
DAUO	33.5130555555556	6.7825
DAUT	29.2411111111111	0.283611111111111
DAUU	31.9313888888889	5.40666666666667
DAUZ	28.0513888888889	9.64277777777778
DBBB	6.35638888888889	2.38333333333333
DBBO	11.0333333333333	0.983333333333333
DBBP	9.35713888888889	2.60925
DFCC	13.6552777777778	-2.32888888888889
DFEF	12.0333333333333	0.4
DFEG	14.45	-0.266666666666667
DFFD	12.3536666666667	-1.512
DFOD	12.4666666666667	-3.48333333333333
DFOG	10.3830555555556	-3.16888888888889
DFOO	11.1675	-4.32111111111111
DFOR	10.9833333333333	-4.93333333333333
DGAA	5.60441388888889	-0.167544444444444
DGLE	9.55726666666667	-0.863172222222222
DGLW	10.0538888888889	-2.47472222222222
DGSI	6.71458333333333	-1.59083333333333
DGTK	4.89598611111111	-1.77470833333333
DIAP	5.25450277777778	-3.92865555555556
DIBI	9.53333333333333	-6.46666666666667
DIBK	7.752375	-5.06770555555556
DIBN	9.26666666666667	-3.03333333333333
DIBU	8.01138888888889	-2.76472222222222
DIDK	6.6	-4.56666666666667
DIDL	6.79625	-6.47911111111111
DIKO	9.38758611111111	-5.55413333333333
DIMN	7.27096666666667	-7.58753333333333
DIOD	9.53771944444445	-7.56364444444444
DISG	7.96833333333333	-6.71083333333333
DISP	4.74762222222222	-6.66022777777778
DISS	4.93333333333333	-6.13333333333333
DITM	8.28972222222222	-7.67277777777778
DIYO	6.90578055555556	-5.36376111111111
DNAA	9.00679722222222	7.263175
DNAI	4.87215277777778	8.09357222222222
DNAK	7.24674444444444	5.30098055555556
DNBE	6.31653055555556	5.59894444444444
DNCA	4.97604722222222	8.3473
DNEN	6.47353888888889	7.55893333333333
DNES	5.62055555555556	5.19916666666667
DNFB	4.40501666666667	7.18111666666667
DNGO	10.29815	10.89905
DNIB	7.36240833333333	3.97833055555556
DNIL	8.44011666666667	4.49396944444445
DNIM	5.42715555555556	7.206025
DNJO	9.63981666666667	8.86906666666667
DNKA	10.6958694444444	7.32014722222222
DNKN	12.0480555555556	8.52361111111111
DNKT	13.0074333333333	7.66061111111111
DNMA	11.8552444444444	13.0812861111111
DNMM	6.57864722222222	3.32252777777778
DNMN	9.65233333333333	6.46233333333333
DNPO	5.01545833333333	6.94953333333333
DNSO	12.9158972222222	5.20689722222222
DNSU	5.59818333333333	5.81880555555556
DNYO	9.25753055555556	12.4304166666667
DNZA	11.1302027777778	7.68571111111111
DRRM	13.5019444444444	7.11972222222222
DRRN	13.4816555555556	2.17036111111111
DRRT	14.8780555555556	5.27027777777778
DRZA	16.9623055555556	7.99038888888889
DRZD	18.9688888888889	12.8688888888889
DRZF	13.375	12.6416666666667
DRZR	13.783975	8.99040555555555
DTKA	36.98	8.87694444444445
DTMB	35.7580555555556	10.7547222222222
DTNH	36.0758333333333	10.4386111111111
DTTA	36.8511111111111	10.2269444444444
DTTF	34.4155555555556	8.81361111111111
DTTG	33.7325	9.91611111111111
DTTJ	33.8755555555556	10.7772222222222
DTTR	31.7027777777778	9.2575
DTTX	34.7205555555556	10.6886111111111
DTTZ	33.9397222222222	8.11055555555556
DXNG	9.7775	1.09555555555556
DXXX	6.16583333333333	1.25416666666667
FAAB	-28.5733166666667	16.5343361111111
FABE	-32.895	27.285
FABL	-29.0937888888889	26.3039638888889
FACT	-33.9713694444444	18.6042916666667
FAEL	-33.0351194444444	27.8213
FAGC	-25.9870666666667	28.1405472222222
FAGG	-34.0067027777778	22.3742805555556
FAGM	-26.2419777777778	28.1513555555556
FAGR	-32.194825	24.5411555555556
FAHS	-24.3546194444444	31.0504
FAKD	-26.8666666666667	26.7166666666667
FAKM	-28.8047833333333	24.7640333333333
FAKN	-25.3915833333333	31.0992777777778
FAKS	-27.6666666666667	27.3166666666667
FAKU	-27.4596527777778	23.4125694444444
FAKZ	-29.6829694444444	17.0930777777778
FALA	-25.9396916666667	27.925575
FALC	-28.3583333333333	23.4416666666667
FALE	-29.6117722222222	31.1193138888889
FALM	-23.1594527777778	29.7015027777778
FALW	-32.9688111111111	18.1652611111111
FAMB	-25.6856694444444	29.44055
FAMJ	-27.0830555555556	29.785
FAMM	-25.8074472222222	25.5444694444444
FAMU	-27.6333333333333	32.05
FAOB	-34.5581166666667	20.2491222222222
FAOH	-33.6	22.1833333333333
FAOR	-26.1336944444444	28.2423166666667
FAPE	-33.9900138888889	25.6102777777778
FAPI	-23.9166666666667	29.4833333333333
FAPM	-29.6467888888889	30.3977722222222
FAPN	-25.3354833333333	27.1716333333333
FAPO	-24.7847222222222	30.7922222222222
FAPP	-23.8496472222222	29.4564888888889
FAPS	-26.6682916666667	27.0841083333333
FARS	-33.8108333333333	19.91
FASB	-29.6894444444444	17.9388888888889
FASE	-24.9415138888889	31.4446
FASI	-26.25	28.4
FASK	-25.8089388888889	28.1669722222222
FASS	-27.65	23.0
FASZ	-24.9613222222222	31.588825
FATT	-26.7785555555556	29.3384
FATW	-27.2028055555556	22.4808333333333
FAUL	-28.3194722222222	31.4170555555556
FAUP	-28.4010222222222	21.2596611111111
FAUT	-31.5462472222222	28.6753166666667
FAVM	-22.4494444444444	29.3380555555556
FAVV	-26.575	27.9625
FAVW	-31.4	23.15
FAWB	-25.6553055555556	28.2213416666667
FAWK	-25.8276916666667	28.2208916666667
FAWM	-27.9980083333333	26.6695555555556
FAYP	-33.9009888888889	18.4974888888889
FAZR	-25.6	26.0333333333333
FBFT	-21.1607694444444	27.4820944444444
FBGZ	-21.6969166666667	21.6532777777778
FBJW	-24.6	24.6666666666667
FBKE	-17.8308472222222	25.1626
FBLV	-22.1902916666667	29.1270138888889
FBMN	-19.9725	23.4280555555556
FBOR	-21.2666666666667	25.3166666666667
FBSK	-24.5558333333333	25.9188888888889
FBSN	-20.555	26.1161111111111
FBSP	-22.0566	27.8204583333333
FCBB	-4.2505	15.2515
FCBY	-4.21666666666667	13.2833333333333
FCOD	-1.2215	15.9135833333333
FCOE	-0.85	14.8
FCOI	1.58333333333333	18.05
FCOM	-0.0191666666666667	15.5819444444444
FCOO	-0.516666666666667	15.95
FCOU	1.6	16.0333333333333
FCPL	-4.2	12.6666666666667
FCPP	-4.81472222222222	11.8863888888889
FDMS	-26.5286111111111	31.3077777777778
FDSK	-26.3586583333333	31.7171361111111
FEFE	4.31666666666667	21.15
FEFF	4.39777777777778	18.5197222222222
FEFG	4.78333333333333	22.7833333333333
FEFI	10.2333333333333	22.7166666666667
FEFM	5.85	20.65
FEFN	8.43	20.6344444444444
FEFO	5.95035555555556	15.639825
FEFR	6.52680555555556	21.9900555555556
FEFS	6.5	17.4333333333333
FEFT	4.226	15.7854166666667
FEFW	8.01666666666667	22.4
FEGE	5.35	25.9166666666667
FEGL	9.58333333333333	21.7333333333333
FEGO	8.9	22.7833333333333
FGBT	1.90220833333333	9.80281388888889
FGMY	1.678575	11.0247916666667
FGSL	3.75530555555556	8.70872222222222
FIMP	-20.43	57.6830555555556
FJDG	-7.31474166666667	72.4160555555556
FKKB	2.87277777777778	9.97777777777778
FKKD	4.01166666666667	9.70833333333333
FKKI	4.46666666666667	14.3666666666667
FKKL	10.4547222222222	14.2530555555556
FKKM	5.64436111111111	10.7565
FKKN	7.35916666666667	13.56
FKKO	4.55	13.7166666666667
FKKR	9.33668333333333	13.3810583333333
FKKU	5.64444444444444	10.3558333333333
FKKV	6.03694444444444	10.1205555555556
FKKY	3.83194444444444	11.5216666666667
FKYS	3.717325	11.5524361111111
FLHN	-17.8123055555556	25.8199527777778
FLKK	-15.3266666666667	28.4566666666667
FLKS	-10.2166666666667	31.1333333333333
FLMA	-11.1333333333333	28.8666666666667
FLMF	-13.2666666666667	31.9333333333333
FLSK	-12.995	28.665
FLSO	-12.9	28.15
FMCH	-11.5365194444444	43.271325
FMCZ	-12.8066666666667	45.2805555555556
FMEE	-20.89	55.5163888888889
FMEP	-21.3216666666667	55.4255555555556
FMMI	-18.7965277777778	47.4760833333333
FMMT	-18.1158333333333	49.3933333333333
FMMV	-23.2847222222222	44.3177777777778
FMNA	-12.3511111111111	49.2943055555556
FMNE	-13.1833333333333	48.9833333333333
FMNM	-15.6665833333333	46.3510833333333
FMNN	-13.3179166666667	48.3091944444444
FMNQ	-16.75	44.4833333333333
FMNS	-14.2786111111111	50.1746388888889
FMNW	-14.9	47.9833333333333
FMSD	-25.0380555555556	46.9561111111111
FMSI	-22.4061111111111	46.1669444444444
FMSJ	-21.4263888888889	44.3158333333333
FMSM	-21.2079944444444	48.3561305555556
FMST	-23.3894444444444	43.7255
FNBG	-12.61	13.4036111111111
FNCA	-5.58666666666667	12.1886111111111
FNGI	-17.0433333333333	15.6838888888889
FNHU	-12.8	15.75
FNKU	-12.4	16.95
FNLU	-8.85555555555556	13.2338888888889
FNMA	-9.51666666666667	16.3166666666667
FNMO	-15.2594444444444	12.1488888888889
FNNG	-7.75	15.3
FNSA	-9.68888888888889	20.4308333333333
FNSO	-6.14108611111111	12.3717638888889
FNUB	-14.9244444444444	13.5716666666667
FNUE	-11.7686111111111	19.8972222222222
FNUG	-7.6	15.0333333333333
FOGF	-1.28333333333333	10.6166666666667
FOGK	-1.17	12.4327777777778
FOGM	-1.85	11.0666666666667
FOGO	1.53694444444444	11.5786111111111
FOGQ	-0.664166666666667	13.6727777777778
FOGR	-0.704725	10.2450472222222
FOOB	2.08333333333333	11.4833333333333
FOOD	-1.52638888888889	13.2511111111111
FOOG	-0.719263888888889	8.75135
FOOH	-1.58333333333333	9.26666666666667
FOOK	0.583333333333333	12.9166666666667
FOOL	0.458444444444444	9.41233333333333
FOON	-1.65185555555556	13.4348
FOOR	-0.833333333333333	12.75
FOOT	-2.88833333333333	10.9552777777778
FPST	0.377908333333333	6.71315
FQBR	-19.7957055555556	34.9047916666667
FQCB	-14.81525	36.5301388888889
FQCH	-19.1497222222222	33.4288888888889
FQIN	-23.8666666666667	35.4166666666667
FQLC	-13.2745277777778	35.2646333333333
FQLU	-15.0333333333333	40.6666666666667
FQMA	-25.9208333333333	32.5726388888889
FQMP	-11.35	40.35
FQMR	-13.2250527777778	37.5520666666667
FQNC	-14.4882333333333	40.71225
FQNP	-15.1027777777778	39.2844444444444
FQPB	-12.9916472222222	40.52425
FQQL	-17.85	36.8666666666667
FQTT	-16.1080888888889	33.640225
FQUG	-14.7	34.3541666666667
FSIA	-4.67434444444444	55.5218527777778
FTTA	9.15111111111111	18.3794444444444
FTTB	10.2833333333333	15.3833333333333
FTTC	13.8472222222222	20.8488888888889
FTTD	8.62027777777778	16.0683333333333
FTTE	14.55	20.85
FTTF	17.1883333333333	21.5116666666667
FTTJ	12.1249472222222	15.0248194444444
FTTM	12.1718166666667	18.6777
FTTN	11.0395694444444	20.2767694444444
FTTP	9.38333333333333	14.9333333333333
FTTY	17.9160722222222	19.1088638888889
FTTZ	21.45	17.05
FVBU	-20.0183333333333	28.6247222222222
FVCZ	-21.0080833333333	31.57855
FVFA	-18.0941666666667	25.84
FVHA	-17.9327777777778	31.0938888888889
FVKB	-16.5194444444444	28.885
FVMV	-20.0619444444444	30.8619444444444
FVWN	-18.6338888888889	27.0080555555556
FWCL	-15.6797222222222	34.9675
FWKA	-9.95342222222222	33.893175
FWKI	-13.7833333333333	33.7775
FXMM	-29.4544444444444	27.5552777777778
FYAR	-22.4666666666667	14.9833333333333
FYGB	-22.5047222222222	18.9913888888889
FYGF	-19.6	18.1333333333333
FYKM	-17.6341666666667	24.1766666666667
FYKT	-26.5388888888889	18.1116666666667
FYLZ	-26.6852777777778	15.2455555555556
FYML	-24.6041666666667	17.925
FYOA	-17.8772222222222	15.95
FYOG	-28.5848055555556	16.4463611111111
FYRU	-17.9561111111111	19.7205555555556
FYSA	-27.8759166666667	16.6476722222222
FYSM	-22.6583333333333	14.5666666666667
FYWB	-22.98	14.6452777777778
FYWE	-22.6075	17.0791666666667
FYWH	-22.4798944444444	17.47095
FZAA	-4.38558888888889	15.4447
FZAI	-5.91805555555556	12.4463888888889
FZAM	-5.8	13.4333333333333
FZCA	-5.03333333333333	18.7833333333333
FZEA	0.0225416666666667	18.2887555555556
FZFA	3.63333333333333	18.6333333333333
FZFD	4.25	20.9666666666667
FZFK	3.26666666666667	19.7666666666667
FZFP	4.16666666666667	21.75
FZFQ	4.11666666666667	19.2166666666667
FZFU	2.18333333333333	22.55
FZGA	2.16666666666667	21.4833333333333
FZIA	0.516666666666667	25.1547222222222
FZIC	0.481677777777778	25.3379638888889
FZJH	2.82666666666667	27.5880555555556
FZKA	1.56579722222222	30.2206444444444
FZKJ	2.81666666666667	24.7833333333333
FZMA	-2.30898611111111	28.8088194444444
FZNA	-1.67085555555556	29.2384027777778
FZNP	0.583333333333333	29.4666666666667
FZOA	-2.91924166666667	25.9153722222222
FZQA	-11.5912861111111	27.5308972222222
FZQF	-10.5333333333333	26.325
FZQM	-10.7666666666667	25.5
FZQP	-10.6666666666667	23.1666666666667
FZRF	-5.875525	29.2493694444444
FZRJ	-7.71666666666667	29.8
FZRK	-7.31666666666667	29.1666666666667
FZRO	-7.93333333333333	28.5333333333333
FZRQ	-5.4	27.0
FZSA	-8.62666666666667	25.2480555555556
FZSI	-10.7166666666667	22.35
FZUA	-5.90008333333333	22.4692
FZUK	-6.43333333333333	20.8
FZVA	-3.41666666666667	23.45
FZWA	-6.11666666666667	23.5666666666667
FZWE	-6.98333333333333	23.0833333333333
FZWT	-6.11666666666667	24.3333333333333
GABS	12.5378638888889	-7.94325277777778
GAGO	16.2482222222222	-0.00588888888888889
GAKD	14.4817222222222	-11.4047222222222
GAMB	14.5085833333333	-4.08419444444444
GANR	15.2333333333333	-9.58333333333333
GASO	11.5981583333333	-5.7989
GATB	16.7339777777778	-2.99849444444444
GATS	20.2461111111111	0.980833333333333
GBYD	13.3425222222222	-16.6578138888889
GCFV	28.4527777777778	-13.8638888888889
GCGM	28.0297222222222	-17.2147222222222
GCLA	28.6263888888889	-17.7555555555556
GCLP	27.9319444444444	-15.3866666666667
GCRR	28.9455555555556	-13.6052777777778
GCTS	28.0444444444444	-16.5725
GCXO	28.4827777777778	-16.3416666666667
GFLL	8.61645833333333	-13.1955833333333
GGOV	11.8888555555556	-15.6557277777778
GLMR	6.28433333333333	-10.7668277777778
GLNA	7.50101666666667	-8.60013055555556
GLRB	6.24044444444445	-10.3598888888889
GMAD	30.3225	-9.41138888888889
GMAG	29.0169444444444	-10.0613888888889
GMAT	28.4483333333333	-11.1613888888889
GMAZ	30.2638888888889	-5.85305555555556
GMFB	32.5144444444444	-1.97833333333333
GMFF	33.9272222222222	-4.97777777777778
GMFI	33.5055555555556	-5.1525
GMFK	31.9480555555556	-4.40055555555556
GMFO	34.7861111111111	-1.92555555555556
GMMB	33.6543222222222	-7.22571666666667
GMMD	32.4019444444444	-6.31611111111111
GMME	34.0513888888889	-6.75166666666667
GMMH	23.7183333333333	-15.9319444444444
GMMI	31.3991666666667	-9.68305555555556
GMML	27.1516666666667	-13.2191666666667
GMMN	33.3641666666667	-7.58166666666667
GMMW	34.9894444444444	-3.02777777777778
GMMX	31.6086111111111	-8.04083333333333
GMMZ	30.9372222222222	-6.90611111111111
GMTA	35.1797222222222	-3.84
GMTN	35.5944444444444	-5.32
GMTT	35.7316666666667	-5.92111111111111
GOGG	12.556	-16.2748611111111
GOGK	12.9	-14.9666666666667
GOGS	12.3888888888889	-16.7416666666667
GOOK	14.1447222222222	-16.0544444444444
GOOY	14.7438888888889	-17.4794444444444
GOSM	15.5938888888889	-13.3222222222222
GOSP	16.6833333333333	-14.9666666666667
GOSR	16.4333333333333	-15.65
GOSS	16.0498055555556	-16.4610555555556
GOTB	14.8666666666667	-12.4833333333333
GOTK	12.5666666666667	-12.2166666666667
GOTS	13.05	-13.3
GOTT	13.7327777777778	-13.6580555555556
GQNA	16.7166666666667	-9.63333333333333
GQNC	18.45	-9.51666666666667
GQNF	16.5933333333333	-11.3997222222222
GQNI	16.6220833333333	-7.31447222222222
GQNK	16.15	-13.5166666666667
GQNN	18.0955555555556	-15.95
GQPA	20.4979666666667	-13.0484722222222
GQPP	20.9283333333333	-17.0311111111111
GQPT	25.2333333333333	-11.5833333333333
GQPZ	22.7580555555556	-12.4686111111111
GUCY	9.57688888888889	-13.6119611111111
GUFA	10.3527138888889	-13.4068666666667
GUFH	10.0385	-10.7603611111111
GUGO	9.24603611111111	-9.29514166666667
GUKR	10.6578611111111	-14.5329444444444
GUKU	9.16083055555556	-10.123
GULB	11.3313055555556	-12.296
GUNZ	7.81558055555556	-8.70380555555555
GUOK	10.9560527777778	-14.3068805555556
GUSB	12.5727361111111	-13.3585333333333
GUXN	10.37605	-9.24514166666667
GVAC	16.7375888888889	-22.9500166666667
GVBA	16.1372222222222	-22.8886111111111
GVNP	14.9411111111111	-23.4847222222222
GVSV	16.8336111111111	-25.0547222222222
HAAB	8.97504166666667	38.7994
HAAM	6.03943611111111	37.5907805555556
HAAX	14.1370694444444	38.7760555555556
HABD	11.6062972222222	37.3197305555556
HADR	9.63778611111111	41.8488861111111
HAGM	8.11729166666667	34.5633611111111
HAGN	12.5323361111111	37.4317972222222
HAGO	5.93512777777778	43.5785694444444
HAHU	13.8216666666667	36.8911111111111
HAJJ	9.32416666666667	42.9083333333333
HAJM	7.67104722222222	36.8258388888889
HALL	11.9738555555556	38.9911166666667
HAMK	13.4733222222222	39.5182111111111
HASO	10.0219472222222	34.5788722222222
HBBA	-3.32046111111111	29.3177444444444
HCMH	9.51833333333333	44.09
HCMI	10.3833333333333	44.95
HCMK	-0.345833333333333	42.4672222222222
HCMM	2.01333333333333	45.305
HDAM	11.5472222222222	43.1594444444445
HEAL	30.9244444444444	28.4613888888889
HEAR	31.0733333333333	33.8358333333333
HEAT	27.0463888888889	31.0119444444444
HEAX	31.1816666666667	29.9463888888889
HEAZ	30.0919444444444	31.3597222222222
HEBA	30.9180555555556	29.6958333333333
HEBL	22.3758333333333	31.6116666666667
HECA	30.1113888888889	31.4138888888889
HEDK	25.4116666666667	29.0016666666667
HEGN	27.1786111111111	33.8008333333333
HEGO	27.3669444444444	33.6680555555556
HEGR	31.0733333333333	34.1494444444444
HEKG	25.4736111111111	30.5908333333333
HELX	25.6708333333333	32.7063888888889
HEMA	25.5580555555556	34.5830555555556
HEMM	31.3252777777778	27.2216666666667
HEOC	29.8122222222222	30.8233333333333
HEOW	22.5833333333333	28.7161111111111
HEPS	31.2794444444444	32.24
HESC	28.6852777777778	34.0625
HESG	26.3427777777778	31.7427777777778
HESH	27.9786111111111	34.3933333333333
HESN	23.9644444444444	32.82
HETB	29.5877777777778	34.7780555555556
HETR	28.2166666666667	33.635
HHAS	15.2841666666667	38.9008333333333
HHMS	15.6699888888889	39.3701027777778
HHSB	13.0666666666667	42.6333333333333
HKEL	0.404011111111111	35.2367138888889
HKIS	0.34725	37.6008611111111
HKJK	-1.31924166666667	36.927775
HKKE	-1.58591666666667	35.2507777777778
HKKI	-0.0859277777777778	34.7288888888889
HKLK	4.20409444444444	34.3481916666667
HKLU	-2.25234444444444	40.9131083333333
HKMO	-4.02883611111111	39.5978027777778
HKNL	0.0622083333333333	37.0413527777778
HKNO	-1.15261111111111	35.7674722222222
HKNW	-1.32127222222222	36.8149666666667
HKRE	-1.27828888888889	36.86055
HKWJ	1.73316388888889	40.0915222222222
HLAM	29.4933333333333	21.1083333333333
HLBD	28.4833333333333	19.0
HLBK	31.8351111111111	24.6055277777778
HLDB	28.975	17.5866666666667
HLFL	28.7833333333333	22.0666666666667
HLGD	31.0600555555556	16.5918083333333
HLGL	28.6683333333333	21.4416666666667
HLGT	25.13355	10.1340333333333
HLHM	30.7016666666667	12.4866666666667
HLKF	24.17825	23.31505
HLLB	32.0968055555556	20.2695611111111
HLLM	32.8944444444444	13.2777777777778
HLLQ	32.7886111111111	21.9644444444444
HLLS	26.9870333333333	14.4725833333333
HLLT	32.6635888888889	13.1591611111111
HLMB	30.385	19.5733333333333
HLML	27.975	22.3583333333333
HLMS	32.3241666666667	15.0619444444444
HLNF	30.5	18.53
HLNM	29.5133333333333	12.945
HLNR	29.2183333333333	21.59
HLON	29.1333333333333	15.9633333333333
HLSA	27.6583333333333	22.5083333333333
HLSD	30.625	18.3516666666667
HLTD	30.1516666666667	9.71533333333333
HLTQ	31.8747222222222	23.9047222222222
HLTS	28.6083333333333	19.3083333333333
HLUB	26.5676333333333	12.8231166666667
HLWA	28.29	19.9466666666667
HLZA	28.595	17.285
HLZG	29.045	20.7816666666667
HLZT	28.9533333333333	19.7716666666667
HLZU	30.875	20.07
HLZW	32.9525	12.0152777777778
HRYR	-1.96844722222222	30.1383861111111
HSAT	17.7096527777778	34.0573527777778
HSDN	19.1526194444444	30.4302166666667
HSFS	13.6148916666667	25.32465
HSGN	13.4834777777778	22.4725111111111
HSKA	15.3874944444444	36.3288416666667
HSLI	11.1371055555556	29.6992388888889
HSMD	4.91555555555556	29.4661111111111
HSMK	6.82572777777778	29.6700888888889
HSMN	18.443	31.8435833333333
HSNN	12.0534888888889	24.956125
HSOB	13.1531583333333	30.2328527777778
HSPN	19.4336388888889	37.234075
HSSG	13.4783611111111	22.5380555555556
HSSJ	4.87199444444445	31.6011388888889
HSSM	9.55896944444445	31.6522416666667
HSSS	15.5903555555556	32.5531527777778
HSSW	21.8027972222222	31.5219833333333
HSWW	7.72574722222222	27.97495
HTAR	-3.36779444444444	36.6204083333333
HTDA	-6.87811111111111	39.202625
HTDO	-6.17035833333333	35.7494305555556
HTGW	-8.91994166666667	33.2740972222222
HTKA	-4.88508333333333	29.6701916666667
HTKJ	-3.42940555555556	37.0744611111111
HTMA	-7.91727777777778	39.6683888888889
HTMP	-6.35533333333333	31.0840555555556
HTMT	-10.3361166666667	40.1820166666667
HTMU	-1.50344444444444	33.8021666666667
HTMW	-2.44412777777778	32.9319333333333
HTPE	-5.25738333333333	39.8113916666667
HTSO	-10.6819472222222	35.5821166666667
HTSU	-7.94856666666667	31.6107555555556
HTTB	-5.076	32.8303055555556
HTXX	-8.91994166666667	33.2740916666667
HTZA	-6.22489166666667	39.225175
HUAR	3.05	30.9166666666667
HUEN	0.0408138888888889	32.4405416666667
HUGU	2.8	32.2666666666667
HUJI	0.45	33.2
HUKD	3.71666666666667	33.8333333333333
HUKO	2.95	34.1166666666667
HUKS	0.188291666666667	30.1015916666667
HUKT	3.28333333333333	32.8833333333333
HUMI	1.75	31.75
HUMO	2.51666666666667	34.5833333333333
HUPA	2.33333333333333	31.5
HUSO	1.72231111111111	33.6186833333333
HUTO	0.683333333333333	34.1666666666667
CAU4	54.0467388888889	-124.011186111111
CCQ3	45.4192194444445	-63.4613027777778
CCR3	46.42615	-67.6279777777778
CDT5	46.5094444444445	-64.6938888888889
CEF4	51.2638222222222	-113.934513888889
CEH6	52.3379444444444	-110.278663888889
CEQ5	53.917	-118.874166666667
CFP7	52.8305555555556	-111.100555555556
CFS6	57.1419444444444	-115.075277777778
CFX4	56.9508805555556	-117.644033333333
CNY3	44.4494444444444	-80.1591666666667
CPZ3	44.0694444444445	-77.3380555555556
CYAM	46.4850694444445	-84.5095527777778
CYAZ	49.0821194444444	-125.772397222222
CYBC	49.1325	-68.2043527777778
CYBG	48.3305555555556	-70.9963888888889
CYBL	49.9520416666667	-125.273052777778
CYBR	49.91	-99.9522722222222
CYBW	51.1053166666667	-114.371488888889
CYCD	49.0545444444444	-123.870119444444
CYCE	43.2856972222222	-81.5063888888889
CYCG	49.296225	-117.632505555556
CYCH	47.0057944444445	-65.4568055555556
CYCK	42.3062333333333	-82.0817472222222
CYCL	47.9909527777778	-66.3303972222222
CYCP	52.1247555555556	-119.292827777778
CYCZ	50.3301638888889	-115.873455555556
CYDF	49.2091694444444	-57.3943611111111
CYDL	58.4223111111111	-130.031505555556
CYDN	51.1015194444444	-100.053261111111
CYDQ	55.7422638888889	-120.183061111111
CYEG	53.3098861111111	-113.579497222222
CYEN	49.2101972222222	-102.965758333333
CYET	53.5789361111111	-116.465061111111
CYEV	68.3037777777778	-133.483127777778
CYEY	48.5648888888889	-78.2490583333333
CYFB	63.7565722222222	-68.5561194444445
CYFC	45.8688777777778	-66.5372194444444
CYFD	43.1323833333333	-80.3415194444444
CYFJ	46.4090833333333	-74.7800777777778
CYFO	54.6780638888889	-101.681880555556
CYFS	61.7601527777778	-121.236527777778
CYGD	43.7678638888889	-81.7106944444445
CYGL	53.6252777777778	-77.7041666666667
CYGM	50.6280555555556	-97.0433333333333
CYGQ	49.7786916666667	-86.9385527777778
CYHB	52.8182361111111	-102.311205555556
CYHD	49.8315138888889	-92.743675
CYHM	43.1736555555556	-79.9350777777778
CYHU	45.5180611111111	-73.4169944444445
CYHY	60.8397805555556	-115.7828
CYHZ	44.8796833333333	-63.5101944444445
CYJT	48.54145	-58.5499083333333
CYKA	50.7025111111111	-120.448605555556
CYKF	43.460775	-80.3787138888889
CYKL	54.8051722222222	-66.8053194444444
CYLB	54.7704138888889	-112.031777777778
CYLD	47.820175	-83.3468888888889
CYLJ	54.1253916666667	-108.522897222222
CYLL	53.3105833333333	-110.074161111111
CYLQ	47.4097222222222	-72.7888888888889
CYLS	44.4860361111111	-79.5556305555556
CYLW	49.9572222222222	-119.377777777778
CYME	48.8562888888889	-67.4523027777778
CYMJ	50.3302777777778	-105.559166666667
CYMM	56.6532	-111.223330555556
CYMT	49.7718638888889	-74.5279722222222
CYMX	45.6797833333333	-74.0387083333333
CYND	45.5216916666667	-75.5636111111111
CYNH	56.0355555555556	-121.975833333333
CYNM	49.761775	-77.8027055555556
CYNR	57.3815527777778	-111.701116666667
CYOD	54.405	-110.279444444444
CYOJ	58.6215777777778	-117.164672222222
CYOW	45.3225027777778	-75.6672694444444
CYPA	53.2145805555556	-105.672983333333
CYPD	45.6565027777778	-61.3683694444445
CYPE	56.2272916666667	-117.448419444444
CYPG	49.9031333333333	-98.2739111111111
CYPQ	44.2305388888889	-78.3631972222222
CYPR	54.2858916666667	-130.444677777778
CYPU	52.1128333333333	-124.144766666667
CYPY	58.7674416666667	-111.117561111111
CYPZ	54.3764611111111	-125.951377777778
CYQA	44.975075	-79.3037638888889
CYQB	46.7911972222222	-71.3933138888889
CYQD	53.9712833333333	-101.09105
CYQF	52.1822888888889	-113.894491666667
CYQG	42.2759777777778	-82.9554
CYQH	60.11645	-128.822416666667
CYQI	43.8271833333333	-66.0882611111111
CYQK	49.7883277777778	-94.3631138888889
CYQL	49.6302305555556	-112.799697222222
CYQM	46.1160972222222	-64.6786055555556
CYQQ	49.7108333333333	-124.886666666667
CYQR	50.4321916666667	-104.666055555556
CYQS	42.7699555555556	-81.1096166666667
CYQT	48.3719972222222	-89.3217055555555
CYQU	55.1819055555556	-118.887188888889
CYQW	52.7691	-108.244461111111
CYQX	48.9370194444444	-54.5681361111111
CYQY	46.1615194444445	-60.0480444444444
CYQZ	53.0260777777778	-122.510366666667
CYRC	48.5206972222222	-71.0505722222222
CYRI	47.76435	-69.5843722222222
CYRJ	48.5198944444444	-72.2659694444445
CYRL	51.0670916666667	-93.7930444444445
CYRM	52.4296833333333	-114.904236111111
CYRQ	46.3515722222222	-72.6804583333333
CYRT	62.8106638888889	-92.1146138888889
CYSB	46.62555	-80.7978333333333
CYSC	45.4384833333333	-71.6913555555556
CYSG	46.0963555555556	-70.7145833333333
CYSJ	45.3161583333333	-65.8901222222222
CYSM	60.0203166666667	-111.961822222222
CYSN	43.1916027777778	-79.17115
CYSU	46.4405194444444	-63.8334777777778
CYTA	45.8645	-77.2514722222222
CYTH	55.8046333333333	-97.8624083333333
CYTN	45.6118194444444	-62.6211194444444
CYTR	44.1188888888889	-77.5280555555556
CYTS	48.5706583333333	-81.3766388888889
CYUL	45.4705555555556	-73.7408333333333
CYUY	48.2061888888889	-78.8355888888889
CYVB	48.0710888888889	-65.460225
CYVC	55.1513388888889	-105.266986111111
CYVO	48.0532861111111	-77.7826611111111
CYVP	58.0948777777778	-68.422175
CYVQ	65.281325	-126.798569444444
CYVR	49.1946944444444	-123.183966666667
CYVT	55.8419361111111	-108.417608333333
CYVV	44.7440388888889	-81.1085833333333
CYWG	49.9100138888889	-97.2400944444444
CYWK	52.922725	-66.864675
CYWL	52.1834055555556	-122.054338888889
CYXC	49.6121222222222	-115.782055555556
CYXD	53.5718277777778	-113.519458333333
CYXE	52.1709638888889	-106.699958333333
CYXH	50.0188944444444	-110.720627777778
CYXJ	56.2383777777778	-120.740286111111
CYXL	50.1141666666667	-91.9055
CYXR	47.6949138888889	-79.8489555555556
CYXS	53.8840388888889	-122.677552777778
CYXT	54.4685472222222	-128.578380555556
CYXU	43.0330555555556	-81.1510027777778
CYXX	49.0252666666667	-122.359955555556
CYXY	60.70955	-135.067269444444
CYYB	46.363825	-79.4242333333333
CYYC	51.1226138888889	-114.013347222222
CYYD	54.8253611111111	-127.182836111111
CYYE	58.8364	-122.596977777778
CYYF	49.4625777777778	-119.602277777778
CYYG	46.2891555555556	-63.11925
CYYJ	48.6471638888889	-123.425741666667
CYYL	56.8643888888889	-101.076105555556
CYYQ	58.7390611111111	-94.0663722222222
CYYR	53.3191666666667	-60.4258333333333
CYYT	47.6186194444445	-52.7524194444444
CYYU	49.4115888888889	-82.46845
CYYY	48.609025	-68.2075888888889
CYYZ	43.6766611111111	-79.6306444444444
CYZD	43.7426555555556	-79.4656388888889
CYZE	45.8842333333333	-82.5682805555556
CYZF	62.4630388888889	-114.440402777778
CYZH	55.292925	-114.777208333333
CYZP	53.2542555555556	-131.813808333333
CYZR	42.9996805555556	-82.3093638888889
CYZU	54.1438472222222	-115.786766666667
CYZV	50.2233888888889	-66.2656916666667
CYZX	44.9844444444444	-64.9169444444445
CYZY	55.2994694444444	-123.133386111111
CZBM	45.2909361111111	-72.741975
CZPC	49.5204277777778	-113.997097222222
CZUM	53.5626277777778	-64.1059361111111
PAAQ	61.5949138888889	-149.088711111111
PAAT	52.8325416666667	173.175555555556
PABE	60.7785555555556	-161.837166666667
PABI	63.9951611111111	-145.720025
PABR	71.2848611111111	-156.768583333333
PACD	55.2052611111111	-162.724522222222
PACV	60.4917777777778	-145.477555555556
PADG	68.0321111111111	-162.899194444444
PADK	51.8779638888889	-176.646030555556
PADL	59.0446666666667	-158.5055
PADQ	57.7499666666667	-152.493794444444
PAED	61.2513472222222	-149.806513888889
PAEI	64.6656444444445	-147.101438888889
PAEN	60.5733055555556	-151.244777777778
PAFA	64.8151111111111	-147.856444444444
PAFB	64.836725	-147.616222222222
PAGA	64.7361666666667	-156.937388888889
PAGK	62.1549444444444	-145.454333333333
PAGS	58.4252777777778	-135.707416666667
PAHO	59.6455555555556	-151.476583333333
PAIL	59.7555777777778	-154.917752777778
PAJN	58.3547416666667	-134.574683333333
PAKN	58.6764944444444	-156.648691666667
PAKT	55.3540833333333	-131.711222222222
PAKU	70.3306666666667	-149.598055555556
PAKW	55.5792333333333	-133.075997222222
PAMC	62.9527777777778	-155.607055555556
PANC	61.1741555555556	-149.998188888889
PANI	61.5815972222222	-159.543041666667
PANT	55.0422944444444	-131.5709
PAOM	64.5125527777778	-165.444369444444
PAOR	62.9611666666667	-141.928083333333
PAOT	66.8846194444445	-162.597677777778
PAPG	56.8014722222222	-132.946222222222
PASC	70.1955472222222	-148.465788888889
PASD	55.3136944444444	-160.521416666667
PASI	57.0468333333333	-135.361069444444
PASN	57.1663055555556	-170.222555555556
PASX	60.4751388888889	-151.039638888889
PASY	52.7122611111111	174.113611111111
PAUN	63.8885	-160.799111111111
PAVD	61.1342166666667	-146.244761111111
PAWG	56.4843333333333	-132.369833333333
PAYA	59.5033055555556	-139.66025
EEEI	59.2622222222222	24.2186111111111
EEKA	58.9908333333333	22.8308333333333
EEKE	58.23	22.5094444444444
EETN	59.4133333333333	24.8325
EETU	58.3075	26.6869444444444
EVJA	56.9425	23.2238888888889
EVLA	56.5175	21.0969444444444
EVRA	56.9236111111111	23.9711111111111
EYKA	54.9638888888889	24.0847222222222
EYPA	55.9733333333333	21.0938888888889
EYSA	55.8938888888889	23.395
EYVI	54.6369444444444	25.2877777777778
LUBL	47.8384666666667	27.7807055555556
LUBM	47.8626194444445	28.2128666666667
LUCH	45.8437805555556	28.2636583333333
LUKK	46.9277944444444	28.9309277777778
RCBS	24.4288888888889	118.361111111111
RCFG	26.1597222222222	119.958333333333
UAAA	43.3555555555556	77.0438888888889
UAAH	46.8938888888889	75.0052777777778
UAAT	45.1222222222222	78.4433333333333
UACC	51.0225	71.4661111111111
UACK	53.33	69.5966666666667
UACP	54.7744444444444	69.185
UADD	42.8541666666667	71.3027777777778
UAII	42.365	69.4755555555556
UAKD	47.7088888888889	67.7391666666667
UAKK	49.6713888888889	73.3363888888889
UAOL	45.6219305555556	63.2106222222222
UAON	46.0525	63.2491666666667
UAOO	44.7061111111111	65.5916666666667
UARR	51.1508333333333	51.5430555555556
UASK	50.0361111111111	82.4941666666667
UASP	52.195	77.0738888888889
UASS	50.3513888888889	80.2344444444445
UATE	43.86	51.0919444444444
UATG	47.1219444444444	51.8213888888889
UATT	50.2458333333333	57.2066666666667
UAUR	50.325	66.96
UAUU	53.2069444444444	63.5502777777778
UBBB	40.4697222222222	50.0513888888889
UBBG	40.7388888888889	46.32
UBBL	38.7586111111111	48.8063888888889
UBBN	39.1887333333333	45.4572805555556
UBBQ	40.8088888888889	47.7252777777778
UBBY	41.5622222222222	46.6672222222222
UCFL	42.5857138888889	76.7018111111111
UCFM	43.0612722222222	74.4775083333333
UCFO	40.6089972222222	72.7932138888889
UCFP	42.5083333333333	78.4077777777778
UDSG	40.750475	43.859325
UDYE	40.1219916666667	44.4650916666667
UDYZ	40.147275	44.3958805555556
UEBB	67.6477777777778	134.693611111111
UECT	59.8816666666667	111.045555555556
UEEA	58.6033333333333	125.407777777778
UEEE	62.0933333333333	129.773333333333
UELL	56.9138888888889	124.913888888889
UEMH	62.7894444444444	136.855
UEMM	62.1080833333333	129.56425
UEMO	60.4008333333333	120.471111111111
UEMU	60.3561111111111	134.434722222222
UENN	63.2969444444444	118.343055555556
UERL	60.72	114.823333333333
UERO	68.5161111111111	112.48
UERP	66.4005555555556	112.030277777778
UERR	62.5347222222222	114.038888888889
UESO	70.6247222222222	147.896388888889
UESS	68.7413888888889	161.339722222222
UEST	71.6955555555556	128.900555555556
UESU	65.7483333333333	150.888333333333
UEVV	66.7952777777778	123.3625
UGKO	42.176825	42.4827138888889
UGSB	41.6101777777778	41.5994388888889
UGTB	41.6691555555556	44.9547916666667
UHBB	50.4255555555556	127.4125
UHHH	48.5280555555556	135.188055555556
UHKD	50.6052777777778	137.08
UHKG	49.2366666666667	140.188333333333
UHKK	50.4091666666667	136.934722222222
UHMA	64.735	177.738333333333
UHMD	64.3780555555555	-173.243333333333
UHMI	68.8683333333333	-179.376666666667
UHMK	67.8469444444445	166.135277777778
UHMM	59.9111111111111	150.720555555556
UHMO	64.6666666666667	170.416666666667
UHMP	69.7833333333333	170.595
UHMS	62.9166666666667	152.416666666667
UHNN	53.1541666666667	140.651111111111
UHOO	59.4016666666667	143.051666666667
UHPP	53.1702777777778	158.453611111111
UHSI	45.2563888888889	147.955833333333
UHSS	46.8886111111111	142.7175
UHWW	43.3980555555556	132.148888888889
UIAA	52.0266666666667	113.305
UIBB	56.3705555555556	101.698611111111
UIIB	52.915	103.575
UIII	52.2672222222222	104.394722222222
UIIR	52.3677777777778	104.183333333333
UITT	56.8580555555556	105.729444444444
UIUU	51.8077777777778	107.438333333333
UKBB	50.3447222222222	30.8933333333333
UKBC	49.7961111111111	30.0244444444444
UKCC	48.075	37.7255555555556
UKCM	47.0761111111111	37.4497222222222
UKCW	48.4180555555556	39.3747222222222
UKDB	46.815	36.7583333333333
UKDD	48.3572222222222	35.1005555555556
UKDE	47.8671111111111	35.3150833333333
UKDR	48.0441666666667	33.2080555555556
UKHD	50.025	36.2672222222222
UKHH	49.9268138888889	36.2900638888889
UKHK	49.1338888888889	33.4763888888889
UKHP	49.5694444444445	34.3941666666667
UKHS	50.8583333333333	34.7627777777778
UKKE	49.4158333333333	31.995
UKKK	50.4019444444444	30.4519444444444
UKKM	50.6002777777778	30.1936111111111
UKKO	50.1588888888889	28.7383333333333
UKKT	50.4788888888889	30.3841666666667
UKKW	50.2333333333333	30.2983333333333
UKLH	49.3594	26.9333583333333
UKLI	48.8838888888889	24.6844444444444
UKLL	49.8097222222222	23.9583333333333
UKLN	48.2591666666667	25.98
UKLR	50.6083333333333	26.1397222222222
UKLT	49.525	25.6988888888889
UKLU	48.6344444444444	22.2633333333333
UKOH	46.6761111111111	32.5063888888889
UKOM	46.6691666666667	30.0111111111111
UKON	47.0580555555556	31.9194444444444
UKOO	46.4266666666667	30.6763888888889
UKWW	49.2425	28.6138888888889
ULAA	64.6002777777778	40.7166666666667
ULAH	64.4416666666667	40.4222222222222
ULAM	67.6402777777778	53.1219444444444
ULDD	69.7633333333333	61.5633333333333
ULLI	59.8002777777778	30.2625
ULMK	67.4627777777778	33.5855555555556
ULMM	68.7816666666667	32.7511111111111
ULNR	57.9611111111111	31.3844444444444
ULOO	57.7838888888889	28.3952777777778
ULPB	61.8852777777778	34.1547222222222
ULWC	59.2761111111111	38.0188888888889
ULWW	59.2816666666667	39.9447222222222
UMBB	52.1083333333333	23.8963888888889
UMGG	52.5269444444445	31.0166666666667
UMII	55.1263888888889	30.3497222222222
UMKK	54.89	20.5925
UMMG	53.6019444444445	24.0538888888889
UMMM	53.8644444444445	27.5397222222222
UMMS	53.8825	28.0308333333333
UMOO	53.9552777777778	30.0941666666667
UNAA	53.74	91.3852777777778
UNBB	53.3633333333333	83.5397222222222
UNBG	51.9691666666667	85.8363888888889
UNCC	55.0916666666667	82.9066666666667
UNEE	55.27	86.1075
UNII	58.4738888888889	92.1130555555556
UNIP	61.5916666666667	89.9997222222222
UNKL	56.1730555555556	92.4933333333333
UNKM	56.1766666666667	92.5433333333333
UNKY	51.6694444444445	94.4005555555556
UNNE	55.0916666666667	83.0038888888889
UNNT	55.0333333333333	82.5991666666667
UNOO	54.9672222222222	73.3102777777778
UNSS	60.7088888888889	77.6611111111111
UNTT	56.3830555555556	85.2105555555556
UNWW	53.8119444444444	86.8783333333333
UOHH	71.9783333333333	102.493333333333
UOII	67.4375	86.6219444444444
UOOO	69.3111111111111	87.3319444444445
URFF	45.0519444444444	33.9736111111111
URKA	45.0022222222222	37.3472222222222
URKG	44.5819444444444	38.0130555555556
URKK	45.0347222222222	39.1702777777778
URKN	44.57	38.0386111111111
URMG	43.3883333333333	45.6997222222222
URML	42.8167972222222	47.6524083333333
URMM	44.2268027777778	43.0830138888889
URMN	43.5133333333333	43.6366666666667
URMO	43.2052777777778	44.6066666666667
URMS	43.3236111111111	45.0122222222222
URMT	45.1091666666667	42.1125
URRR	47.2583333333333	39.8180555555556
URRT	47.1983333333333	38.8491666666667
URSS	43.4444444444444	39.9469444444444
URWA	46.2833333333333	48.0063888888889
URWI	46.3747222222222	44.3238888888889
URWW	48.7825	44.3455555555556
USCC	55.3058333333333	61.5036111111111
USCM	53.3930555555556	58.7555555555556
USDA	71.2144444444445	72.0388888888889
USDB	70.3152777777778	68.3336111111111
USDD	66.590675	66.6111111111111
USHH	61.0286111111111	69.0861111111111
USHN	62.1105555555556	65.6138888888889
USHQ	63.6880555555556	66.6997222222222
USHS	61.3244444444444	63.6044444444445
USHU	60.1072222222222	64.8258333333333
USII	56.8352777777778	53.4625
USKK	58.5034444444444	49.3469444444444
USMM	65.4822222222222	72.6983333333333
USMQ	67.9883333333333	75.0969444444444
USMU	66.07	76.5194444444444
USNN	60.9486111111111	76.4805555555556
USPP	57.9144444444444	56.0213888888889
USRK	62.1905555555556	74.5336111111111
USRO	63.1838888888889	75.2688888888889
USRR	61.3438888888889	73.4022222222222
USSS	56.7430555555556	60.8030555555556
USTR	57.1683333333333	65.3161111111111
USUU	55.475	65.4152777777778
UTAA	37.9916666666667	58.3633333333333
UTAK	40.0633333333333	53.0072222222222
UTAM	37.6216666666667	61.8966666666667
UTAT	41.7616666666667	59.8416666666667
UTAV	39.0833333333333	63.6133333333333
UTDD	38.5433333333333	68.825
UTDK	37.9883333333333	69.8066666666667
UTDL	40.215	69.6966666666667
UTDT	37.8666666666667	68.865
UTFA	40.7266666666667	72.2933333333333
UTFF	40.3583333333333	71.745
UTFN	40.985	71.5566666666667
UTNN	42.4883333333333	59.6233333333333
UTNU	41.5833333333333	60.645
UTSA	40.1166666666667	65.1716666666667
UTSB	39.775	64.4833333333333
UTSK	38.8033333333333	65.7733333333333
UTSN	41.6133333333333	64.2333333333333
UTSS	39.7	66.9833333333333
UTST	37.2866666666667	67.3083333333333
UTTP	41.3116666666667	69.3916666666667
UTTT	41.2566666666667	69.2816666666667
UUBA	57.7966666666667	41.0180555555556
UUBC	54.5486111111111	36.3713888888889
UUBI	56.9425	40.9322222222222
UUBK	58.1033333333333	38.93
UUBL	56.1275	40.315
UUBP	53.2144444444444	34.1758333333333
UUBW	55.5527777777778	38.1497222222222
UUDD	55.4086111111111	37.9063888888889
UUDL	57.5605555555556	40.1575
UUEE	55.9725	37.4130555555555
UUMB	55.6113888888889	36.6477777777778
UUMO	55.5075	37.5041666666667
UUMU	55.88	38.0633333333333
UUOB	50.6438888888889	36.59
UUOD	51.6533333333333	39.2569444444444
UUOK	51.7505555555556	36.2955555555556
UUOL	52.7031944444444	39.5378055555555
UUOO	51.815	39.2297222222222
UUOS	51.3291666666667	37.7691666666667
UUOT	52.805	41.4833333333333
UUWW	55.5991666666667	37.2730555555556
UUYH	63.5669444444445	53.8044444444444
UUYP	65.1213888888889	57.1308333333333
UUYS	66.0047222222222	57.3672222222222
UUYW	67.4891666666667	63.9894444444444
UUYY	61.6466666666667	50.845
UWGG	56.23	43.7841666666667
UWKB	54.6416666666667	52.8
UWKD	55.6069444444444	49.2802777777778
UWKE	55.5647222222222	52.0925
UWKJ	56.7052777777778	47.8952777777778
UWKS	56.0902777777778	47.3472222222222
UWLL	54.2683333333333	48.2236111111111
UWLW	54.3994444444444	48.8011111111111
UWOO	51.7958333333333	55.4566666666667
UWOR	51.0725	58.5958333333333
UWPP	53.1091666666667	45.0261111111111
UWPS	54.1252777777778	45.2125
UWSS	51.5655555555556	46.0455555555556
UWUU	54.5577777777778	55.8738888888889
UWWG	53.2188888888889	50.3280555555556
UWWW	53.5011111111111	50.1538888888889
VHHH	22.3088888888889	113.914722222222
VMMC	22.1494444444444	113.591388888889
ZBAA	40.0733333333333	116.598333333333
ZBHH	40.8483333333333	111.823333333333
ZBLA	49.205	119.826666666667
ZBMZ	49.565	117.333333333333
ZBSH	39.97	119.731666666667
ZBSJ	38.2816666666667	114.698333333333
ZBTJ	39.1233333333333	117.345
ZBYN	37.7483333333333	112.63
ZGDY	29.1016666666667	110.445
ZGGG	23.3933333333333	113.308333333333
ZGHA	28.19	113.218333333333
ZGKL	25.2166666666667	110.038333333333
ZGNN	22.61	108.173333333333
ZGOW	23.5533333333333	116.501666666667
ZGSZ	22.6383333333333	113.811666666667
ZHCC	34.5183333333333	113.84
ZHHH	30.785	114.206666666667
ZJHK	19.9333333333333	110.46
ZJSY	18.3016666666667	109.413333333333
ZKPY	39.2056083333333	125.670241666667
ZLDH	40.1633333333333	94.81
ZLIC	38.3216666666667	106.391666666667
ZLJQ	39.8583333333333	98.34
ZLLL	36.5166666666667	103.621666666667
ZLXN	36.5266666666667	102.041666666667
ZLXY	34.445	108.75
ZLYS	32.835	97.035
ZMBH	46.1675	100.702777777778
ZMBU	46.6602777777778	113.285277777778
ZMCD	48.135	114.646388888889
ZMDZ	43.6083333333333	104.366111111111
ZMGT	43.0127777777778	101.333333333333
ZMKB	43.1436111111111	106.843888888889
ZMKD	47.9544444444444	91.6275
ZMMN	49.6627777777778	100.099444444444
ZMUB	47.8425	106.7675
ZMUG	50.0666666666667	91.9363888888889
ZMUL	48.9941666666667	89.9233333333333
ZPJH	21.975	100.761666666667
ZPLJ	26.6783333333333	100.246666666667
ZPPP	25.105	102.941666666667
ZSAM	24.545	118.126666666667
ZSCG	31.9183333333333	119.776666666667
ZSCN	28.8633333333333	115.9
ZSFZ	25.9333333333333	119.665
ZSHC	30.2283333333333	120.433333333333
ZSJN	36.8583333333333	117.215
ZSNB	29.8266666666667	121.463333333333
ZSNJ	31.7433333333333	118.863333333333
ZSOF	31.9866666666667	116.975
ZSPD	31.145	121.793333333333
ZSQD	36.265	120.373333333333
ZSQZ	24.7983333333333	118.588333333333
ZSSH	33.79	119.123333333333
ZSSS	31.1966666666667	121.335
ZSTX	29.735	118.255
ZSWH	37.1883333333333	122.23
ZSWX	31.4933333333333	120.428333333333
ZSWZ	27.91	120.853333333333
ZSXZ	34.0583333333333	117.555
ZSYN	33.425	120.201666666667
ZSYT	37.6616666666667	120.978333333333
ZSYW	29.3433333333333	120.033333333333
ZUCK	29.72	106.64
ZUGY	26.5366666666667	106.8
ZULS	29.2966666666667	90.9116666666667
ZUUU	30.58	103.948333333333
ZUXC	27.99	102.183333333333
ZWKC	41.6766666666667	82.8716666666667
ZWSH	39.545	76.0216666666667
ZWTL	43.0316666666667	89.1
ZWTN	37.04	79.8616666666667
ZWWW	43.9083333333333	87.475
ZYCC	43.9983333333333	125.688333333333
ZYHB	45.625	126.251666666667
ZYJM	46.8416666666667	130.465
ZYMD	44.5233333333333	129.57
ZYQQ	47.2383333333333	123.916666666667
ZYTL	38.9666666666667	121.54
ZYTX	41.6416666666667	123.485
ZYYJ	42.8816666666667	129.45
BGBW	61.1607194444444	-45.425675
BGSF	67.0169694444444	-50.689325
BGTL	76.5312027777778	-68.7031611111111
BIAR	65.6586111111111	-18.0722222222222
BIEG	65.2833333333333	-14.4013888888889
BIHN	64.2955555555556	-15.2272222222222
BIHU	65.9525	-17.4258333333333
BIKF	63.985	-22.6055555555556
BIKR	65.7316666666667	-19.5727777777778
BIRK	64.13	-21.9405555555556
BKPR	42.5727777777778	21.0358333333333
EBAW	51.1894444444444	4.46027777777778
EBBE	50.7577777777778	4.76694444444444
EBBR	50.9013888888889	4.48444444444445
EBCI	50.46	4.45277777777778
EBCV	50.5758333333333	3.83111111111111
EBFN	51.0902777777778	2.65277777777778
EBKT	50.8186111111111	3.20916666666667
EBLG	50.6363888888889	5.44277777777778
EBOS	51.1988888888889	2.86222222222222
EDAB	51.1935305555556	14.5197472222222
EDAC	50.9818166666667	12.5063611111111
EDAH	53.8787055555556	14.1523472222222
EDBC	51.8559277777778	11.4180083333333
EDBH	54.338175	12.7101055555556
EDBN	53.6022361111111	13.3060805555556
EDCD	51.889475	14.5319861111111
EDCY	51.577	14.137
EDDB	52.3622472222222	13.5006722222222
EDDC	51.1343444444444	13.768
EDDE	50.9798111111111	10.9581055555556
EDDF	50.0333055555556	8.57045555555556
EDDG	52.1346416666667	7.68483055555556
EDDH	53.6303888888889	9.98822777777778
EDDK	50.8659166666667	7.14274444444445
EDDL	51.280925	6.75731111111111
EDDM	48.3537833333333	11.7860861111111
EDDN	49.4987	11.0780083333333
EDDP	51.4239916666667	12.2363833333333
EDDR	49.2145527777778	7.10950833333333
EDDS	48.6898777777778	9.22196388888889
EDDT	52.5596861111111	13.2877111111111
EDDV	52.4602138888889	9.68352222222222
EDDW	53.0474	8.78674722222222
EDFH	49.9486722222222	7.26389166666667
EDGE	50.9922222222222	10.4761111111111
EDGS	50.7076583333333	8.08296944444444
EDHI	53.5337972222222	9.83228611111111
EDHL	53.8053666666667	10.7192222222222
EDJA	47.9888222222222	10.2394833333333
EDLE	51.4022222222222	6.93722222222222
EDLP	51.6140888888889	8.61631666666667
EDLV	51.6024138888889	6.14217222222222
EDLW	51.5183138888889	7.61224166666667
EDMA	48.4251583333333	10.9317638888889
EDMO	48.0813638888889	11.2830666666667
EDNY	47.6713166666667	9.51148611111111
EDOP	53.4269972222222	11.7834361111111
EDOV	52.6288888888889	11.82
EDQG	49.6481305555556	9.96648333333333
EDRZ	49.209525	7.40064722222222
EDSB	48.7793527777778	8.0805
EDTG	47.9030555555556	7.61777777777778
EDTL	48.36925	7.82772222222222
EDTM	48.0538888888889	9.37277777777778
EDTY	49.1183166666667	9.78395555555556
EDVE	52.3191861111111	10.5588888888889
EDVK	51.4207916666667	9.39215833333333
EDXW	54.9116361111111	8.34238611111111
EFET	68.3644444444444	23.4275
EFHA	61.8563888888889	24.7891666666667
EFHK	60.3172222222222	24.9633333333333
EFHN	59.8455555555556	23.0822222222222
EFIT	62.1661111111111	30.0736111111111
EFIV	68.6108333333333	27.4138888888889
EFJO	62.6588888888889	29.6244444444444
EFJY	62.4008333333333	25.6727777777778
EFKA	63.1241666666667	23.0513888888889
EFKE	65.7791666666667	24.5847222222222
EFKI	64.2841666666667	27.6875
EFKK	63.7202777777778	23.1391666666667
EFKS	65.9902777777778	29.2319444444444
EFKT	67.6986111111111	24.8480555555556
EFKU	63.0086111111111	27.7944444444444
EFLP	61.0458333333333	28.1486111111111
EFMA	60.1219444444445	19.8963888888889
EFMI	61.6863888888889	27.2
EFOU	64.9291666666667	25.3555555555556
EFPO	61.4613888888889	21.7977777777778
EFPU	65.4022222222222	26.9469444444444
EFRO	66.5616666666667	25.8308333333333
EFSA	61.9427777777778	28.945
EFSI	62.6936111111111	22.8319444444444
EFSO	67.3966666666667	26.6180555555556
EFTP	61.4152777777778	23.5877777777778
EFTU	60.5147222222222	22.2616666666667
EFUT	60.8963888888889	26.9380555555556
EFVA	63.0452777777778	21.7641666666667
EFVR	62.1711111111111	27.8686111111111
EFYL	64.055	24.725
EGAA	54.6575	-6.21583333333333
EGAC	54.6180555555556	-5.8725
EGAE	55.0427777777778	-7.16194444444445
EGBB	52.4538555555556	-1.74802777777778
EGBE	52.3698111111111	-1.47968055555556
EGBP	51.6680555555556	-2.05694444444444
EGCC	53.3538888888889	-2.275
EGCD	53.3380555555556	-2.14888888888889
EGCN	53.4752833333333	-1.00413611111111
EGDC	51.0871666666667	-4.15033888888889
EGDL	51.5051444444445	-1.99342777777778
EGDR	50.0860916666667	-5.25571111111111
EGDX	51.4048111111111	-3.43576388888889
EGDY	51.00935	-2.63885277777778
EGEC	55.4376166666667	-5.6881
EGFE	51.8330555555556	-4.96111111111111
EGFF	51.3966666666667	-3.34333333333333
EGGD	51.3826694444444	-2.7191
EGGP	53.3336111111111	-2.84972222222222
EGGW	51.8747222222222	-0.368333333333333
EGHH	50.78	-1.8425
EGHI	50.9502777777778	-1.35666666666667
EGHL	51.1866666666667	-1.03194444444444
EGHQ	50.4408333333333	-4.99527777777778
EGJB	49.4347222222222	-2.60194444444444
EGJJ	49.2079527777778	-2.195525
EGKB	51.3308333333333	0.0325
EGKK	51.1480555555556	-0.190277777777778
EGLC	51.5052777777778	0.0552777777777778
EGLF	51.2752777777778	-0.7775
EGLJ	51.6744444444444	-1.08527777777778
EGLL	51.4775	-0.461388888888889
EGMC	51.5702777777778	0.693333333333333
EGMD	50.9561111111111	0.939166666666667
EGMH	51.3422222222222	1.34611111111111
EGNC	54.9375	-2.80916666666667
EGNE	53.2805555555556	-0.951388888888889
EGNH	53.7716666666667	-3.02861111111111
EGNJ	53.5744444444445	-0.350833333333333
EGNM	53.8658333333333	-1.66055555555556
EGNO	53.745	-2.88388888888889
EGNR	53.1780555555556	-2.97777777777778
EGNS	54.0833333333333	-4.62333333333333
EGNT	55.0379222222222	-1.68980277777778
EGNV	54.5091666666667	-1.42944444444444
EGNX	52.8311111111111	-1.32777777777778
EGOS	52.7981694444444	-2.66804166666667
EGOV	53.2481194444445	-4.53557222222222
EGOW	53.581575	-3.05552222222222
EGPB	59.8813888888889	-1.29388888888889
EGPC	58.4588888888889	-3.09305555555556
EGPD	57.2025	-2.19805555555556
EGPE	57.5425	-4.0475
EGPF	55.8719444444444	-4.43305555555556
EGPH	55.95	-3.3725
EGPI	55.6833333333333	-6.25972222222222
EGPK	55.5094444444445	-4.59444444444444
EGPL	57.4805555555556	-7.36388888888889
EGPO	58.2155555555556	-6.33111111111111
EGQL	56.3726916666667	-2.86847222222222
EGQS	57.7051666666667	-3.33916666666667
EGSC	52.205	0.175
EGSH	52.6758333333333	1.28277777777778
EGSS	51.885	0.235
EGSU	52.0908333333333	0.131944444444444
EGSX	51.7216666666667	0.154166666666667
EGTC	52.0722222222222	-0.616666666666667
EGTE	50.7342916666667	-3.41381111111111
EGTG	51.5194444444444	-2.59083333333333
EGTK	51.8369444444445	-1.32
EGUB	51.6162666666667	-1.09581666666667
EGUO	51.4408333333333	-2.28
EGVA	51.6816666666667	-1.79
EGVO	51.2341388888889	-0.942825
EGWU	51.5530555555556	-0.418333333333333
EGXD	54.1371861111111	-1.42021944444444
EGXG	53.8343333333333	-1.1955
EGXU	54.0489111111111	-1.25274722222222
EGXY	53.0227777777778	-0.911111111111111
EGXZ	54.2055222222222	-1.38209444444444
EGYD	53.03035	-0.483241666666667
EGYE	52.962225	-0.561625
EGYM	52.6483527777778	0.550691666666667
EHAM	52.3080555555556	4.76416666666667
EHBK	50.9158333333333	5.77694444444444
EHEH	51.45	5.37444444444444
EHGG	53.125	6.58333333333333
EHRD	51.9569444444444	4.43722222222222
EHTW	52.2758333333333	6.88916666666667
EICK	51.8413888888889	-8.49111111111111
EIDW	53.4213888888889	-6.27
EIKN	53.9102777777778	-8.81861111111111
EIKY	52.1808333333333	-9.52388888888889
EIME	53.3030555555556	-6.45527777777778
EINN	52.7019444444445	-8.92472222222222
EKAH	56.3000166666667	10.6190083333333
EKBI	55.7403222222222	9.15177777777778
EKCH	55.6179166666667	12.6559722222222
EKEB	55.5259416666667	8.55340277777778
EKKA	56.2974583333333	9.12462777777778
EKOD	55.4766638888889	10.3309333333333
EKRK	55.5855666666667	12.1314277777778
EKRN	55.0632666666667	14.7595583333333
EKSB	54.9643666666667	9.79173055555556
EKSP	55.2255527777778	9.26393055555556
EKTS	57.0688	8.705225
EKVG	62.0636277777778	-7.27721944444444
EKYT	57.0927888888889	9.84916388888889
ELLX	49.6233333333333	6.20444444444444
ENAL	62.5625	6.11972222222222
ENAN	69.2925	16.1441666666667
ENAT	69.9761111111111	23.3716666666667
ENBO	67.2691666666667	14.3652777777778
ENBR	60.2936111111111	5.21805555555556
ENCN	58.2038888888889	8.085
ENDU	69.0558333333333	18.5402777777778
ENEV	68.4888888888889	16.6783333333333
ENFG	61.0155555555556	9.28805555555556
ENGM	60.2027777777778	11.0838888888889
ENHD	59.3433333333333	5.2125
ENKB	63.1119444444444	7.82611111111111
ENKR	69.725	29.8877777777778
ENML	62.7447222222222	7.2625
ENNA	70.0666666666667	24.9738888888889
ENOL	63.6988888888889	9.60388888888889
ENRO	62.5788888888889	11.345
ENRY	59.3788888888889	10.7855555555556
ENSB	78.2461111111111	15.4655555555556
ENTC	69.6813888888889	18.9177777777778
ENTO	59.1866666666667	10.2586111111111
ENVA	63.4575	10.9241666666667
ENZV	58.8766666666667	5.63777777777778
EPBY	53.0966666666667	17.9777777777778
EPCE	54.4161111111111	17.7633333333333
EPDE	51.5511111111111	21.8919444444444
EPGD	54.3775	18.4661111111111
EPKK	50.0777777777778	19.7847222222222
EPKN	50.5291083333333	18.085175
EPKS	52.3319444444445	16.9666666666667
EPKT	50.4741666666667	19.08
EPLB	51.2402777777778	22.7136111111111
EPLE	51.1827777777778	16.1780555555556
EPLK	51.5516666666667	19.1791666666667
EPLL	51.7219444444445	19.3980555555556
EPLY	52.005	19.1438888888889
EPMB	54.0266666666667	19.1355555555556
EPMI	53.395	16.0827777777778
EPML	50.322275	21.4621305555556
EPMM	52.1955555555556	21.6558333333333
EPMO	52.4511111111111	20.6519444444444
EPOK	54.5797222222222	18.5172222222222
EPPO	52.4211111111111	16.8263888888889
EPPW	52.3791666666667	17.8522222222222
EPRA	51.3888888888889	21.2116666666667
EPRZ	50.11	22.0188888888889
EPSC	53.5847222222222	14.9022222222222
EPSN	53.7905555555556	15.8263888888889
EPSY	53.4818583333333	20.9376916666667
EPTM	51.5844444444444	20.0972222222222
EPWA	52.1658333333333	20.9672222222222
EPWR	51.1027777777778	16.8858333333333
EPZG	52.1386111111111	15.7986111111111
ESCF	58.3977777777778	15.5227777777778
ESCM	59.9008333333333	17.5958333333333
ESDF	56.2666666666667	15.265
ESFR	58.4980555555556	13.0547222222222
ESGG	57.66	12.2911111111111
ESGJ	57.7583333333333	14.0691666666667
ESGP	57.7755555555556	11.8705555555556
ESGR	58.4561111111111	13.9727777777778
ESGT	58.3180555555556	12.345
ESIA	58.5136111111111	14.5072222222222
ESIB	58.4284694444444	12.7112361111111
ESKM	60.9586111111111	14.5105555555556
ESKN	58.7886111111111	16.9036111111111
ESMK	55.9205555555556	14.0852777777778
ESMO	57.3519444444445	16.4983333333333
ESMQ	56.6855555555556	16.2875
ESMS	55.5483333333333	13.3533333333333
ESMT	56.6908333333333	12.82
ESMV	57.2922222222222	14.1369444444444
ESMX	56.9302777777778	14.7288888888889
ESND	62.0477777777778	14.4241666666667
ESNG	67.1330555555555	20.8122222222222
ESNK	63.0486111111111	17.7688888888889
ESNL	64.5475	18.7177777777778
ESNN	62.5294444444444	17.4427777777778
ESNO	63.4077777777778	18.9925
ESNQ	67.8213888888889	20.3355555555556
ESNS	64.6247222222222	21.0769444444444
ESNT	62.4813694444445	17.0029166666667
ESNU	63.7930555555556	20.28
ESNV	64.5786111111111	16.8397222222222
ESNX	65.5902777777778	19.2819444444444
ESNZ	63.1944444444444	14.5002777777778
ESOE	59.2280555555556	15.04
ESOH	60.0211111111111	13.5788888888889
ESOK	59.4447222222222	13.3375
ESOW	59.5894444444444	16.6336111111111
ESPA	65.5433333333333	22.1236111111111
ESPE	65.8752777777778	20.15
ESQO	59.3883333333333	15.9208333333333
ESSA	59.6519444444444	17.9186111111111
ESSB	59.3544444444444	17.9422222222222
ESSD	60.4222222222222	15.515
ESSF	57.5258333333333	15.8233333333333
ESSK	60.5933333333333	16.9513888888889
ESSL	58.4063888888889	15.6797222222222
ESSP	58.5861111111111	16.2463888888889
ESST	60.1547222222222	12.9936111111111
ESSU	59.3522222222222	16.7083333333333
ESSV	57.6627777777778	18.3461111111111
ESTA	56.2911111111111	12.855
ESTL	56.0852777777778	13.2069444444444
ESUD	64.9608333333333	17.6966666666667
ESUP	67.2458333333333	23.0688888888889
ETHB	52.2784277777778	9.08219166666667
ETHC	52.5912	10.0221333333333
ETHL	48.2201083333333	9.91020833333333
ETHM	50.366	7.31533333333333
ETMN	53.7676166666667	8.65851944444444
ETNL	53.9180861111111	12.2792888888889
ETNU	53.602225	13.3060583333333
ETNW	52.4573277777778	9.42715555555555
ETSI	48.7156305555556	11.5337
LATI	41.4147222222222	19.7205555555556
LBBG	42.5702777777778	27.5152777777778
LBGO	43.1516666666667	25.7119444444444
LBPD	42.0677777777778	24.8508333333333
LBSF	42.695	23.4083333333333
LBWN	43.2319444444445	27.8252777777778
LDDU	42.5613527777778	18.2682444444444
LDOS	45.4626666666667	18.8101555555556
LDPL	44.8935333333333	13.9221916666667
LDRG	45.3794444444444	14.5036111111111
LDRI	45.2168888888889	14.5702666666667
LDSP	43.5389444444444	16.2979638888889
LDVA	46.2942166666667	16.3834722222222
LDZA	45.7429305555556	16.0687777777778
LDZD	44.1082694444444	15.3466972222222
LEAB	38.9486111111111	-1.86333333333333
LEAL	38.2822222222222	-0.558055555555556
LEAM	36.8438888888889	-2.37
LEAS	43.5636111111111	-6.03472222222222
LEBA	37.8419444444444	-4.84888888888889
LEBB	43.3011111111111	-2.91055555555556
LEBG	42.3575	-3.61361111111111
LEBL	41.2969444444444	2.07833333333333
LEBZ	38.8913888888889	-6.82138888888889
LECH	40.2141666666667	0.0736111111111111
LECO	43.3019444444444	-8.37722222222222
LECU	40.3705555555556	-3.78527777777778
LEDA	41.7280555555556	0.535277777777778
LEGE	41.9008333333333	2.76055555555556
LEGR	37.1886111111111	-3.77722222222222
LEGT	40.2941666666667	-3.72361111111111
LEHC	42.0808333333333	-0.323333333333333
LEIB	38.8727777777778	1.37305555555556
LEJR	36.7447222222222	-6.06
LELC	37.775	-0.8125
LELN	42.5886111111111	-5.65611111111111
LEMD	40.4722222222222	-3.56083333333333
LEMG	36.675	-4.49916666666667
LEMH	39.8625	4.21861111111111
LEMO	37.175	-5.61611111111111
LEPA	39.5516666666667	2.73888888888889
LEPP	42.77	-1.64638888888889
LERJ	42.4605555555556	-2.32055555555556
LERS	41.1475	1.16722222222222
LERT	36.6452777777778	-6.34944444444444
LESA	40.9519444444445	-5.50194444444445
LESO	43.3563888888889	-1.79055555555556
LEST	42.8963888888889	-8.41527777777778
LETL	40.4119444444445	-1.2175
LETO	40.4966666666667	-3.44583333333333
LEVC	39.4894444444444	-0.481666666666667
LEVD	41.7061111111111	-4.85194444444444
LEVT	42.8827777777778	-2.72444444444444
LEVX	42.2291666666667	-8.6275
LEXJ	43.4269444444444	-3.82
LEZG	41.6661111111111	-1.04166666666667
LEZL	37.4180555555556	-5.89888888888889
LFAC	50.9608333333333	1.95138888888889
LFAQ	49.97	2.6925
LFAT	50.5147222222222	1.6275
LFAV	50.3247222222222	3.46555555555556
LFBA	44.1747222222222	0.590555555555556
LFBC	44.535	-1.13138888888889
LFBD	44.8286111111111	-0.715277777777778
LFBE	44.8244444444445	0.520555555555556
LFBF	43.5491666666667	1.35722222222222
LFBG	45.6583333333333	-0.3175
LFBH	46.1791666666667	-1.19527777777778
LFBI	46.5875	0.306666666666667
LFBK	46.2261111111111	2.36277777777778
LFBL	45.8608333333333	1.18027777777778
LFBN	46.3133333333333	-0.394444444444444
LFBO	43.635	1.36777777777778
LFBP	43.38	-0.418611111111111
LFBT	43.1855555555556	-0.00277777777777778
LFBU	45.7294444444444	0.219166666666667
LFBX	45.1975	0.815277777777778
LFBZ	43.4683333333333	-1.53111111111111
LFCC	44.3505555555556	1.47861111111111
LFCI	43.9133333333333	2.11666666666667
LFCK	43.555	2.29055555555556
LFCM	43.9891666666667	3.18333333333333
LFCR	44.4075	2.48333333333333
LFDH	43.6869444444444	0.6
LFDN	45.8894444444444	-0.9825
LFES	48.0536111111111	-3.66416666666667
LFGA	48.1102777777778	7.35916666666667
LFGJ	47.0427777777778	5.435
LFJA	48.0916666666667	5.05
LFJL	48.9783333333333	6.24666666666667
LFJR	47.5602777777778	-0.312222222222222
LFJU	46.7122222222222	2.94472222222222
LFKB	42.55	9.48472222222222
LFKC	42.5244444444444	8.79305555555556
LFKF	41.5022222222222	9.09666666666667
LFKJ	41.9238888888889	8.8025
LFKS	41.9263888888889	9.40527777777778
LFLA	47.8463888888889	3.49666666666667
LFLB	45.6391666666667	5.88
LFLC	45.7858333333333	3.1625
LFLD	47.0608333333333	2.37
LFLL	45.7255555555556	5.08111111111111
LFLN	46.4063888888889	4.02111111111111
LFLP	45.9308333333333	6.10638888888889
LFLS	45.3630555555556	5.33277777777778
LFLU	44.9155555555556	4.96861111111111
LFLV	46.1716666666667	3.40416666666667
LFLW	44.8975	2.41666666666667
LFLX	46.8602777777778	1.72111111111111
LFLY	45.7294444444444	4.93888888888889
LFMA	43.5052777777778	5.36722222222222
LFMD	43.5463888888889	6.95416666666667
LFMH	45.5341666666667	4.29722222222222
LFMI	43.5225	4.92416666666667
LFMK	43.2158333333333	2.30861111111111
LFML	43.4366666666667	5.215
LFMN	43.6652777777778	7.215
LFMO	44.14	4.86861111111111
LFMP	42.7408333333333	2.86972222222222
LFMQ	43.2522222222222	5.78611111111111
LFMT	43.5833333333333	3.96138888888889
LFMU	43.3233333333333	3.35333333333333
LFMV	43.9066666666667	4.90194444444445
LFMY	43.6027777777778	5.10805555555556
LFOA	47.0569444444444	2.63888888888889
LFOB	49.4544444444445	2.11277777777778
LFOE	49.0286111111111	1.22
LFOH	49.5338888888889	0.0880555555555556
LFOJ	47.9877777777778	1.76055555555556
LFOK	48.7733333333333	4.20611111111111
LFOP	49.3908333333333	1.18388888888889
LFOT	47.4319444444444	0.723055555555556
LFOV	48.0322222222222	-0.742777777777778
LFPB	48.9694444444445	2.44138888888889
LFPC	49.2536111111111	2.51916666666667
LFPG	49.0097222222222	2.54777777777778
LFPM	48.6052777777778	2.67083333333333
LFPO	48.7233333333333	2.37944444444444
LFPT	49.0966666666667	2.04083333333333
LFPV	48.7741666666667	2.19166666666667
LFQB	48.3216666666667	4.01666666666667
LFQG	47.0036111111111	3.11083333333333
LFQI	50.2191666666667	3.15222222222222
LFQQ	50.5633333333333	3.08694444444444
LFQT	50.6166666666667	2.64
LFQV	49.785	4.64277777777778
LFRB	48.4472222222222	-4.42166666666667
LFRC	49.6508333333333	-1.47527777777778
LFRD	48.5877777777778	-2.08
LFRG	49.3633333333333	0.16
LFRH	47.7605555555556	-3.44
LFRI	46.7025	-1.38166666666667
LFRJ	48.5302777777778	-4.15166666666667
LFRK	49.1733333333333	-0.45
LFRN	48.0719444444445	-1.73222222222222
LFRO	48.7544444444445	-3.47194444444444
LFRQ	47.975	-4.16777777777778
LFRS	47.1569444444444	-1.60777777777778
LFRT	48.5375	-2.85666666666667
LFRU	48.6008333333333	-3.81666666666667
LFRV	47.7191666666667	-2.72333333333333
LFRZ	47.3105555555556	-2.15666666666667
LFSB	47.59	7.52916666666667
LFSD	47.2658333333333	5.095
LFSF	49.0763888888889	6.13388888888889
LFSG	48.325	6.06666666666667
LFSI	48.6336111111111	4.90805555555556
LFSL	45.0397222222222	1.48555555555556
LFSM	47.4866666666667	6.79138888888889
LFSR	49.3102777777778	4.05083333333333
LFST	48.5419444444444	7.63444444444444
LFTF	43.2475	6.12722222222222
LFTH	43.0972222222222	6.14611111111111
LFTW	43.7575	4.41638888888889
LFXA	45.9797222222222	5.33777777777778
LGAD	37.9252777777778	21.2913888888889
LGAL	40.8558333333333	25.9561111111111
LGAV	37.9367	23.9445
LGAX	40.6511111111111	22.4888888888889
LGBL	39.2194444444444	22.7944444444444
LGEL	38.0694444444444	23.5541666666667
LGHI	38.3433333333333	26.1405555555556
LGIO	39.6972222222222	20.8219444444444
LGIR	35.3397222222222	25.1802777777778
LGKA	40.4463888888889	21.2811111111111
LGKF	38.12	20.5005555555556
LGKL	37.0683333333333	22.0252777777778
LGKM	40.9666666666667	24.35
LGKO	36.7947222222222	27.0911111111111
LGKP	35.4211111111111	27.1458333333333
LGKR	39.6019444444444	19.9122222222222
LGKV	40.9138888888889	24.6197222222222
LGKZ	40.2858333333333	21.8416666666667
LGLM	39.9172222222222	25.2363888888889
LGLR	39.6486111111111	22.4486111111111
LGMK	37.4372222222222	25.3472222222222
LGMT	39.0577777777778	26.5986111111111
LGPZ	38.9255555555556	20.765
LGRD	36.3841666666667	28.1177777777778
LGRP	36.4052777777778	28.0861111111111
LGRX	38.1511111111111	21.4255555555556
LGSA	35.5313888888889	24.1511111111111
LGSK	39.1775	23.5036111111111
LGSM	37.6891666666667	26.9122222222222
LGSR	36.3991666666667	25.4791666666667
LGST	35.2161111111111	26.1011111111111
LGSY	38.9675	24.4875
LGTG	38.3333333333333	23.55
LGTL	35.1930555555556	25.3291666666667
LGTP	37.5166666666667	22.4
LGTS	40.5197222222222	22.9709166666667
LGTT	38.1072222222222	23.7661111111111
LGZA	37.7511111111111	20.8841666666667
LHBP	47.4393277777778	19.2618083333333
LHDC	47.4888888888889	21.6152777777778
LHPP	45.9891666666667	18.2422222222222
LHPR	47.6272222222222	17.8083333333333
LHSM	46.6863888888889	17.1591666666667
LIBC	38.9966666666667	17.0791666666667
LIBD	41.1380555555556	16.765
LIBG	40.5172222222222	17.3997222222222
LIBP	42.4372222222222	14.1872222222222
LIBR	40.6605555555556	17.9480555555556
LICA	38.9083333333333	16.2416666666667
LICB	36.9958333333333	14.6088888888889
LICC	37.4666666666667	15.0638888888889
LICD	35.4980555555556	12.6183333333333
LICG	36.8130555555555	11.9608333333333
LICJ	38.1819444444444	13.0994444444444
LICR	38.0719444444444	15.6536111111111
LICT	37.9119444444444	12.4933333333333
LIEA	40.6311111111111	8.28861111111111
LIEE	39.2472222222222	9.05611111111111
LIEO	40.8986111111111	9.51777777777778
LIMC	45.63	8.72305555555556
LIME	45.6688888888889	9.70027777777778
LIMF	45.2025	7.64944444444444
LIMJ	44.4133333333333	8.8375
LIML	45.4494444444444	9.27833333333333
LIMP	44.8222222222222	10.2952777777778
LIMZ	44.5475	7.62305555555556
LIPE	44.5308333333333	11.2969444444444
LIPH	45.6508333333333	12.1977777777778
LIPK	44.1955555555556	12.0697222222222
LIPO	45.4288888888889	10.3305555555556
LIPQ	45.8275	13.4722222222222
LIPR	44.0194444444444	12.6094444444444
LIPT	45.5716666666667	11.5269444444444
LIPX	45.3963888888889	10.8877777777778
LIPY	43.6166666666667	13.3602777777778
LIPZ	45.5052777777778	12.3519444444444
LIRA	41.7994444444444	12.5972222222222
LIRF	41.8002777777778	12.2388888888889
LIRI	40.62	14.9125
LIRL	41.5469444444444	12.9083333333333
LIRN	40.8844444444444	14.2908333333333
LIRP	43.6827777777778	10.3955555555556
LIRQ	43.8086111111111	11.2027777777778
LIRS	42.7597222222222	11.0719444444444
LIRZ	43.0972222222222	12.5102777777778
LJCE	45.9	15.5302777777778
LJLJ	46.2244444444444	14.4561111111111
LJMB	46.4798611111111	15.6861305555556
LKCS	48.9463888888889	14.4275
LKKB	50.1213666666667	14.5436416666667
LKKU	49.0294444444444	17.4397222222222
LKKV	50.2030555555556	12.915
LKMH	50.54	15.0066666666667
LKMT	49.6961111111111	18.1108333333333
LKPD	50.0134583333333	15.7385722222222
LKPO	49.4258333333333	17.4047222222222
LKPR	50.1008333333333	14.26
LKTB	49.1513888888889	16.6938888888889
LKVO	50.2166666666667	14.3955555555556
LMML	35.8575416666667	14.4774388888889
LOWG	46.9930555555556	15.4391666666667
LOWI	47.2602777777778	11.3438888888889
LOWK	46.6427777777778	14.3372222222222
LOWL	48.2352777777778	14.1880555555556
LOWS	47.7944444444444	13.0033333333333
LOWW	48.1102777777778	16.5697222222222
LOXZ	47.2036111111111	14.7458333333333
LPAR	38.8855555555556	-9.02805555555556
LPAZ	36.9738888888889	-25.1711111111111
LPBG	41.8566666666667	-6.7075
LPBJ	38.0788888888889	-7.9325
LPFR	37.0144444444444	-7.96583333333333
LPHR	38.52	-28.7163888888889
LPLA	38.7619444444444	-27.0908333333333
LPMA	32.6941666666667	-16.7780555555556
LPMR	39.8283333333333	-8.8875
LPMT	38.705	-9.0375
LPOV	40.9202777777778	-8.64388888888889
LPPD	37.7419444444444	-25.6977777777778
LPPI	38.5544444444444	-28.4413888888889
LPPR	41.2355555555556	-8.67805555555555
LPPS	33.0708333333333	-16.3497222222222
LPPT	38.7741666666667	-9.13416666666667
LPST	38.8341666666667	-9.34111111111111
LPTN	39.4751388888889	-8.36458333333333
LQBK	44.9413972222222	17.297475
LQMO	43.2829027777778	17.8458805555556
LQSA	43.8244722222222	18.3317666666667
LQTZ	44.4586527777778	18.7247805555556
LRAR	46.1766666666667	21.2619444444444
LRBC	46.5219444444444	26.9102777777778
LRBM	47.6583333333333	23.4661111111111
LRBS	44.5036111111111	26.1036111111111
LRCK	44.3622222222222	28.4883333333333
LRCL	46.7891666666667	23.6922222222222
LRCS	45.420225	22.2522916666667
LRCV	44.3180555555556	23.8886111111111
LRIA	47.1802777777778	27.6208333333333
LROP	44.5711111111111	26.085
LRSB	45.7858333333333	24.0855555555556
LRSM	47.7033333333333	22.8855555555556
LRSV	47.6875	26.3538888888889
LRTC	45.0627777777778	28.7144444444444
LRTM	46.4677777777778	24.4125
LRTR	45.8097222222222	21.3377777777778
LSGG	46.2383333333333	6.10944444444444
LSGS	46.2191666666667	7.32694444444444
LSPM	46.5130555555556	8.68944444444444
LSZB	46.9122222222222	7.49916666666667
LSZC	46.9744444444445	8.39694444444444
LSZH	47.4580555555556	8.54805555555556
LSZR	47.485	9.56194444444444
LSZS	46.5344444444444	9.88388888888889
LWOH	41.18	20.7422222222222
LWSK	41.9616666666667	21.6213888888889
LXGB	36.15	-5.35
LYBE	44.8193833333333	20.3070666666667
LYBT	44.9410027777778	20.2507277777778
LYDK	42.4323722222222	20.4266611111111
LYKV	43.8181027777778	20.5860916666667
LYNI	43.3372888888889	21.8537222222222
LYPG	42.3593944444445	19.2518777777778
LYTV	42.4046638888889	18.7232861111111
LYUZ	43.9008527777778	19.6888138888889
LZIB	48.17	17.2127777777778
LZKZ	48.6630555555556	21.2411111111111
LZPP	48.625	17.8286111111111
LZSL	48.6380555555556	19.1341666666667
LZTN	48.8650027777778	17.99225
LZTT	49.0736111111111	20.2411111111111
LCEN	35.1488888888889	33.4997222222222
LCGK	35.2333333333333	33.7202777777778
LCLK	34.8788888888889	33.6302777777778
LCPH	34.7183333333333	32.485
LCRA	34.5903333333333	32.9878333333333
LLBG	32.0094444444444	34.8855555555556
LLET	29.5583333333333	34.9588888888889
LLJR	31.865	35.22
LLOV	29.935	34.9408333333333
LLSD	32.1141666666667	34.7819444444444
LTAB	39.9352777777778	32.7408333333333
LTAC	40.1280555555556	32.995
LTAD	39.9516666666667	32.6875
LTAE	40.0788888888889	32.5655555555556
LTAF	36.9822222222222	35.2802777777778
LTAG	36.9988888888889	35.4330555555556
LTAH	38.7338888888889	30.5952777777778
LTAI	36.9002777777778	30.7927777777778
LTAJ	36.9477777777778	37.4788888888889
LTAL	41.3169444444444	33.7961111111111
LTAN	37.9805555555556	32.5625
LTAO	38.3522222222222	38.2519444444444
LTAP	40.8294444444445	35.5222222222222
LTAR	39.8141666666667	36.9025
LTAS	41.5069444444444	32.0897222222222
LTAT	38.4322222222222	38.0830555555556
LTAU	38.7702777777778	35.4952777777778
LTAW	40.3116666666667	36.3736111111111
LTAY	37.7877777777778	29.705
LTAZ	38.7752777777778	34.5266666666667
LTBA	40.9761111111111	28.8141666666667
LTBF	39.6155555555556	27.9327777777778
LTBG	40.3183333333333	27.9777777777778
LTBH	40.1383333333333	26.4277777777778
LTBI	39.7841666666667	30.5819444444444
LTBJ	38.2891666666667	27.155
LTBL	38.5266666666667	27.01
LTBO	38.6813888888889	29.4716666666667
LTBQ	40.735	30.0833333333333
LTBR	40.2558333333333	29.5619444444444
LTBS	36.7125	28.7913888888889
LTBT	38.8094444444444	27.835
LTBU	41.1294444444444	27.9063888888889
LTBV	37.14	27.6688888888889
LTBY	39.8125	30.5205555555556
LTBZ	39.1113888888889	30.1302777777778
LTCA	38.5977777777778	39.2813888888889
LTCB	40.9672222222222	38.0819444444444
LTCC	37.8925	40.2011111111111
LTCD	39.7130555555556	39.5205555555556
LTCE	39.9558333333333	41.1705555555556
LTCF	40.5622222222222	43.1147222222222
LTCG	40.9958333333333	39.7852777777778
LTCH	37.0938888888889	38.8491666666667
LTCI	38.4680555555556	43.3322222222222
LTCJ	37.9322222222222	41.1163888888889
LTCK	38.7447222222222	41.6688888888889
LTCL	37.9780555555556	41.8391666666667
LTCM	42.0158333333333	35.0663888888889
LTCN	37.5383333333333	36.9519444444444
LTCO	39.6475	43.0286111111111
LTCP	37.7322222222222	38.4691666666667
LTCR	37.2327777777778	40.6405555555556
LTCS	37.4566666666667	38.9083333333333
LTCT	39.9755555555556	43.8783333333333
LTCU	38.8611111111111	40.5925
LTCV	37.3638888888889	42.06
LTCW	37.5430555555556	44.2536111111111
LTDA	36.3722222222222	36.2986111111111
LTFA	38.5238888888889	26.9744444444444
LTFB	37.9511111111111	27.3327777777778
LTFC	37.8558333333333	30.3669444444444
LTFD	39.5525	27.0102777777778
LTFE	37.2472222222222	27.6813888888889
LTFG	36.2994444444444	32.3013888888889
LTFH	41.2655555555556	36.5486111111111
LTFJ	40.8983333333333	29.3091666666667
LTFK	40.2	25.8816666666667
OABN	34.81	67.8205555555556
OABT	31.56	64.365
OACC	34.5263888888889	65.2708333333333
OADY	31.0919444444444	64.0669444444445
OAFR	32.3636111111111	62.1675
OAFZ	37.1194444444444	70.5183333333333
OAHR	34.21	62.2283333333333
OAIX	34.9463888888889	69.265
OAJL	34.4002777777778	70.4983333333333
OAKB	34.5658333333333	69.2125
OAKN	31.5058333333333	65.8477777777778
OAKS	33.3336111111111	69.9519444444445
OAMN	35.9305555555555	64.7611111111111
OAMS	36.7069444444444	67.2094444444444
OAQN	34.9858333333333	63.1177777777778
OARM	32.1281138888889	63.4319083333333
OASD	33.3922222222222	62.2611111111111
OASH	33.9219444444444	69.0780555555556
OATN	32.605	65.8638888888889
OAUZ	36.665	68.9108333333333
OAZI	31.8502777777778	64.2283333333333
OBBI	26.2708333333333	50.6336111111111
OBBS	25.9183638888889	50.5906
OBKH	26.0347222222222	50.5244444444444
OEAB	18.2402777777778	42.6563888888889
OEAD	21.2186111111111	55.2622222222222
OEAH	25.2861111111111	49.4861111111111
OEAO	26.4830555555556	38.1186111111111
OEBA	20.2961111111111	41.6341666666667
OEBH	19.9841666666667	42.6230555555556
OEBN	19.8330555555556	54.0208333333333
OEBQ	25.9116666666667	49.5916666666667
OEBT	24.2161111111111	51.45
OEDF	26.4711111111111	49.7977777777778
OEDM	24.4497222222222	44.1211111111111
OEDR	26.2641666666667	50.1525
OEGN	16.9011111111111	42.5858333333333
OEGS	26.3027777777778	43.7741666666667
OEGT	31.4119444444444	37.2794444444444
OEHL	27.4397222222222	41.6863888888889
OEHR	24.1016666666667	49.2233333333333
OEHW	22.9666666666667	46.9
OEJB	27.0388888888889	49.405
OEJF	21.3480555555556	39.1730555555555
OEJL	26.9416666666667	49.7041666666667
OEJN	21.6811111111111	39.1555555555556
OEKK	27.9008333333333	45.5280555555556
OEKM	18.3011111111111	42.8008333333333
OEKN	25.2652777777778	48.1783333333333
OEMA	24.5502777777778	39.7058333333333
OENG	17.6113888888889	44.4191666666667
OEOM	19.1097222222222	50.1194444444444
OEPA	28.3352777777778	46.125
OEPC	25.175	47.4883333333333
OEPF	24.71	44.965
OEPI	24.2766666666667	42.1433333333333
OEPJ	24.1066666666667	41.0366666666667
OEPS	24.0705555555556	47.5622222222222
OERB	22.7025	39.07
OERF	29.6263888888889	43.4905555555556
OERK	24.9627777777778	46.7080555555556
OERM	28.0788888888889	48.6111111111111
OERR	30.9066666666667	41.1383333333333
OERT	26.7233333333333	50.0316666666667
OERY	24.7219444444444	46.7247222222222
OESB	22.515	53.965
OESH	17.4669444444444	47.1213888888889
OESK	29.7852777777778	40.0997222222222
OEST	22.7088888888889	53.2847222222222
OETB	28.3730555555556	36.6213888888889
OETF	21.4833333333333	40.5444444444444
OETH	25.2141666666667	46.6408333333333
OETN	27.8683333333333	48.7683333333333
OETR	31.6927777777778	38.7311111111111
OEUD	25.145	49.3283333333333
OEUM	25.2811111111111	37.205
OEWD	20.5041666666667	45.1988888888889
OEWJ	26.1986111111111	36.4761111111111
OEYN	24.1441666666667	38.0636111111111
OEZL	26.35	44.8333333333333
OIAA	30.3711111111111	48.2283333333333
OIAD	32.4333333333333	48.3833333333333
OIAG	30.75	49.6833333333333
OIAH	30.3377777777778	50.8280555555556
OIAI	32.0022222222222	49.2686111111111
OIAJ	30.8333333333333	49.5333333333333
OIAM	30.5588888888889	49.1505555555556
OIAW	31.3375	48.7602777777778
OIBA	25.8761111111111	55.0316666666667
OIBB	28.9494444444444	50.8302777777778
OIBH	29.8397222222222	50.2722222222222
OIBJ	27.8219444444444	52.3522222222222
OIBK	26.5275	53.9791666666667
OIBL	26.5313888888889	54.8275
OIBP	27.3794444444444	52.7377777777778
OIBQ	29.2602777777778	50.3238888888889
OIBS	25.9083333333333	54.5416666666667
OIBV	26.8102777777778	53.3561111111111
OICC	34.3480555555556	47.1566666666667
OICI	33.5855555555556	46.4044444444444
OICK	33.4386111111111	48.2805555555556
OICS	35.2508333333333	47.0111111111111
OIFE	32.9288888888889	51.5611111111111
OIFK	33.8952777777778	51.5769444444445
OIFM	32.7508333333333	51.8627777777778
OIFP	32.62	51.6902777777778
OIFS	32.2972222222222	50.8422222222222
OIGG	37.3233333333333	49.6177777777778
OIHH	34.8694444444444	48.5505555555556
OIHR	34.1369444444444	49.8419444444444
OIHS	35.2027777777778	48.6666666666667
OIIC	34.9666666666667	50.8166666666667
OIID	35.7041666666667	51.4738888888889
OIIE	35.4161111111111	51.1522222222222
OIII	35.6888888888889	51.3147222222222
OIIP	35.7797222222222	50.8227777777778
OIIS	35.6116666666667	53.4983333333333
OIKB	27.2186111111111	56.3777777777778
OIKJ	28.7275	57.6702777777778
OIKK	30.2744444444444	56.9511111111111
OIKM	29.0841666666667	58.4497222222222
OIKP	27.1594444444444	56.1719444444444
OIKQ	26.7519444444444	55.8972222222222
OIKR	30.2975	56.0508333333333
OIKY	29.5511111111111	55.6716666666667
OIMB	32.8980555555556	59.2661111111111
OIMC	36.4880555555556	61.07
OIMJ	36.4252777777778	55.1041666666667
OIMK	32.8583333333333	58.4416666666667
OIMM	36.2341666666667	59.645
OIMN	37.4891666666667	57.3063888888889
OIMS	36.1686111111111	57.5963888888889
OIMT	33.6680555555556	56.8933333333333
OINE	37.375	55.4519444444445
OING	36.9113888888889	54.3980555555556
OINN	36.6633333333333	51.4647222222222
OINZ	36.6358333333333	53.1936111111111
OISF	28.8927777777778	53.7236111111111
OISJ	28.5866666666667	53.5811111111111
OISL	27.6730555555556	54.3872222222222
OISR	27.3730555555556	53.1880555555556
OISS	29.5402777777778	52.5886111111111
OISY	30.6969444444444	51.55
OITK	38.4222222222222	44.9766666666667
OITL	38.3266666666667	48.4241666666667
OITM	37.3480555555556	46.1330555555556
OITP	39.6052777777778	47.8761111111111
OITR	37.6713888888889	45.0691666666667
OITT	38.1338888888889	46.235
OITZ	36.7747222222222	48.3591666666667
OIYY	31.9061111111111	54.2763888888889
OIZB	31.0983333333333	61.5438888888889
OIZC	25.4444444444444	60.3836111111111
OIZH	29.4733333333333	60.9033333333333
OIZI	27.2288888888889	60.7211111111111
OIZS	27.4083333333333	62.3205555555556
OJAI	31.7225555555556	35.9932138888889
OJAM	31.9727027777778	35.9915722222222
OJAQ	29.6116194444444	35.0180666666667
OKBK	29.2267666666667	47.9799527777778
OLBA	33.81905	35.4900305555556
OLKA	34.5861111111111	36.0027777777778
OLRA	33.8833333333333	35.9833333333333
OMAA	24.4330555555556	54.6511111111111
OMAD	24.4283333333333	54.4580555555556
OMAJ	24.1819444444444	52.6236111111111
OMAL	24.2616666666667	55.6091666666667
OMDB	25.2527777777778	55.3644444444444
OMDL	24.5099361111111	52.3352222222222
OMDW	24.9183333333333	55.1755555555556
OMFJ	25.1122222222222	56.3241666666667
OMRK	25.6133333333333	55.9388888888889
OMSJ	25.3291666666667	55.5161111111111
OOAD	22.492475	57.3833305555556
OODQ	19.5000138888889	57.6428305555556
OOFD	22.3544194444444	56.4848
OOGB	21.3769583333333	57.056525
OOIZ	22.8916666666667	57.7583333333333
OOJA	19.4740083333333	57.3077861111111
OOKB	26.1716666666667	56.2402777777778
OOMK	19.3899888888889	56.3977916666667
OOMS	23.5928583333333	58.2817972222222
OOMX	18.1394861111111	55.1786777777778
OOSA	17.0387277777778	54.0912972222222
OOSH	24.3861055555556	56.6256194444444
OOTH	17.666	54.0246666666667
OPBN	32.9721	70.5249333333333
OPBW	29.3470638888889	71.7114055555556
OPCH	35.8861944444444	71.7999166666667
OPDB	28.8750166666667	64.4046111111111
OPDG	29.9611138888889	70.4855944444445
OPDI	31.9094222222222	70.8966388888889
OPFA	31.365275	72.9955472222222
OPGD	25.2333083333333	62.3294944444445
OPGT	35.9187861111111	74.3336444444445
OPJI	25.0678111111111	61.8054194444444
OPKC	24.9085583333333	67.1627611111111
OPKD	25.3181388888889	68.3662555555556
OPKH	27.7926388888889	66.6430444444445
OPKW	27.2063888888889	69.1563888888889
OPLA	31.5215611111111	74.404575
OPMA	33.0500861111111	73.6383805555556
OPMJ	27.3351555555556	68.1430527777778
OPMT	30.2032222222222	71.4191111111111
OPNH	26.2194416666667	68.3900527777778
OPOR	25.2749305555556	64.5861305555556
OPPG	26.9545444444444	64.1325166666667
OPPI	25.2901583333333	63.3444222222222
OPPS	33.9939138888889	71.5145833333333
OPQT	30.2521444444444	66.9386805555556
OPRK	28.3854222222222	70.2797972222222
OPRN	33.6167666666667	73.0987388888889
OPSD	35.3394916666667	75.5413944444445
OPSK	27.7220166666667	68.7918277777778
OPSS	34.8132722222222	72.3521444444444
OPST	32.5357388888889	74.3638305555556
OPSW	26.9658333333333	68.8808333333333
OPTU	25.9863694444444	63.0301666666667
OPZB	31.3582638888889	69.4638972222222
ORAA	33.7856083333333	42.4412
ORAI	32.97	44.27
ORAN	32.5033333333333	45.3316666666667
ORAT	33.3380527777778	43.5970722222222
ORBI	33.2625388888889	44.2345777777778
ORBM	36.3057611111111	43.1473972222222
ORER	36.2380555555556	43.9466666666667
ORJA	30.545	46.6034444444445
ORKK	35.4694777777778	44.3489333333333
ORMM	30.5490694444444	47.6621416666667
ORNI	31.9898388888889	44.4043277777778
ORQW	35.7671666666667	43.1251666666667
ORSH	34.6732305555556	43.5429944444445
ORSU	35.5608	45.3147166666667
ORTF	36.2830555555556	42.4030555555556
ORTI	33.5228055555556	44.2571944444445
ORTL	30.9375	46.0947222222222
ORUB	32.4816666666667	45.7566666666667
OSAP	36.1804861111111	37.2267555555556
OSDI	33.4107222222222	36.5144666666667
OSDZ	35.2854833333333	40.1760805555556
OSKL	37.0306083333333	41.2052
OSLK	35.4096277777778	35.9478361111111
OSPR	34.55	38.3
OTBD	25.2610583333333	51.5650944444444
OTBH	25.1173166666667	51.3149888888889
OTBK	25.629475	51.5065444444444
OTHH	25.2745638888889	51.6083777777778
OYAA	12.8291666666667	45.03
OYAT	14.5512638888889	46.8260444444445
OYBD	14.1	45.4333333333333
OYBN	14.7819722222222	45.7200833333333
OYBQ	17.3466666666667	44.6216666666667
OYBS	16.0083333333333	43.1777777777778
OYGD	16.1933333333333	52.1741666666667
OYHD	14.7513888888889	42.9761111111111
OYHT	17.3333333333333	52.0166666666667
OYKM	15.3638888888889	42.6055555555556
OYKS	15.8666666666667	48.0833333333333
OYMB	15.4680555555556	45.3277777777778
OYRM	17.5	50.5833333333333
OYRN	14.6625	49.375
OYSH	16.9666666666667	43.7277777777778
OYSN	15.4794444444444	44.2197222222222
OYSQ	12.6319444444444	53.9063888888889
OYSY	15.9636111111111	48.785
OYTF	17.2333333333333	51.0
OYTZ	13.6861111111111	44.1388888888889
OYZM	16.2083333333333	44.7944444444445
VAAH	23.0711111111111	72.6263888888889
VAAU	19.8644444444444	75.3975
VABB	19.0916666666667	72.8661111111111
VABO	22.33	73.2188888888889
VABP	23.2869444444444	77.3369444444444
VABV	21.7541666666667	72.1905555555556
VADU	20.7133333333333	70.9236111111111
VAGD	21.5235555555556	80.2876944444444
VAID	22.7233333333333	75.8055555555556
VAJB	23.1833333333333	80.0602777777778
VAJL	20.9615944444444	75.6245638888889
VAKE	23.1116666666667	70.1013888888889
VAKJ	24.82	79.9183333333333
VALT	18.4083333333333	76.4653194444445
VANP	21.0919444444444	79.0483333333333
VAPO	18.5821083333333	73.9196638888889
VARK	22.3094444444444	70.7794444444444
VARP	21.1811111111111	81.7386111111111
VASL	17.6205555555556	75.935
VASU	21.1161111111111	72.7419444444444
VAUD	24.6175	73.8944444444445
VCBI	7.18018888888889	79.8853
VCCA	8.30188888888889	80.4287777777778
VCCC	6.82305555555556	79.885
VCCH	8.04983333333333	80.9813611111111
VCCJ	9.79194444444445	80.0630555555556
VCCT	8.54	81.1844444444445
VCCV	8.741	80.4978333333333
VCRI	6.28446666666667	81.1241277777778
VDBG	13.0939666666667	103.2225
VDKH	12.2552361111111	104.563875
VDPP	11.5465333333333	104.860783333333
VDSR	13.4109055555556	103.812336111111
VDSV	10.5747222222222	103.634166666667
VEAT	23.8905555555556	91.2391666666667
VEBI	25.7031944444444	91.9780555555556
VEBS	20.2467222222222	85.8185277777778
VECC	22.6539444444444	88.4467166666667
VEGT	26.1050166666667	91.5854305555556
VEGY	24.7480555555556	84.9425
VEIM	24.7642222222222	93.8995555555556
VEKU	24.9133333333333	92.98
VELP	23.8380555555556	92.6266666666667
VELR	27.2911111111111	94.0934166666667
VEMN	27.4810277777778	95.0180277777778
VEMR	25.8833888888889	93.7711666666667
VEPT	25.5936111111111	85.0919444444444
VERC	23.31425	85.3210555555556
VGBR	22.7989416666667	90.3012361111111
VGCB	21.4497583333333	91.9648083333333
VGEG	22.2570222222222	91.8222083333333
VGHS	23.8433472222222	90.3977833333333
VGJR	23.18375	89.1608916666667
VGRJ	24.4387194444444	88.6162666666667
VGSD	25.760375	88.9084694444444
VGSY	24.9613416666667	91.8716361111111
VIAG	27.1558305555556	77.9608916666667
VIAL	25.44	81.7341666666667
VIAR	31.7047222222222	74.8019444444445
VIBN	25.4513888888889	82.8586111111111
VICG	30.6738888888889	76.7872222222222
VICX	26.4043055555556	80.41425
VIDN	30.1905555555556	78.1822222222222
VIDP	28.5686111111111	77.1122222222222
VIJP	26.8241666666667	75.8024166666667
VIJU	32.6933333333333	74.84
VILK	26.7619444444444	80.8833333333334
VLLB	19.9062833333333	102.169238888889
VLLN	20.9615722222222	101.4025
VLPS	15.1352777777778	105.779166666667
VLSK	16.55	104.759722222222
VLVT	17.9883194444444	102.563258333333
VLXK	19.45	103.158333333333
VNBW	27.5072222222222	83.4180555555556
VNDH	28.7533333333333	80.5819444444444
VNKT	27.6971611111111	85.3579277777778
VNNG	28.1016666666667	81.6663888888889
VNVT	26.4841666666667	87.2644444444444
VOAR	13.0712138888889	79.6911916666667
VOBG	12.9521666666667	77.6645833333333
VOBL	13.1988666666667	77.7054722222222
VOBM	15.8586111111111	74.6177777777778
VOBZ	16.5336111111111	80.8033333333333
VOCB	11.0269194444444	77.0417916666667
VOCC	9.94738611111111	76.2730805555556
VOCI	10.1538888888889	76.4069444444445
VOCL	11.1377777777778	75.9505555555556
VOGO	15.3808388888889	73.8270666666667
VOHB	15.3619444444444	75.0844444444445
VOHS	17.2405555555556	78.4288888888889
VOHY	17.4530555555556	78.4580555555556
VOLT	18.4083333333333	76.4652777777778
VOMD	9.83519444444445	78.0883055555556
VOML	12.9620555555556	74.8897777777778
VOMM	12.9949166666667	80.1755
VOMY	12.2324527777778	76.6563388888889
VOND	19.1810361111111	77.3225472222222
VOPB	11.6411611111111	92.7297444444445
VOPC	11.9681527777778	79.8115722222222
VOPN	14.1479722222222	77.7904444444444
VORY	17.1094444444444	81.8194444444444
VOSM	11.7811666666667	78.0640833333333
VOTP	13.6330555555556	79.5419444444444
VOTR	10.7655555555556	78.715
VOTV	8.47944444444445	76.92
VOTX	12.9072138888889	80.1218611111111
VOVZ	17.7211666666667	83.2244833333333
VOYK	13.1355194444444	77.6060305555555
VQPR	27.4034638888889	89.424875
VRMG	-0.69325	73.1556472222222
VRMM	4.19166666666667	73.5291666666667
VRMV	3.47055555555556	72.8452777777778
VTBD	13.9144444444444	100.605555555556
VTBK	14.1005555555556	99.9227777777778
VTBL	14.8746388888889	100.663388888889
VTBO	12.2752777777778	102.32
VTBP	11.7866666666667	99.805
VTBS	13.6858333333333	100.748888888889
VTBU	12.6796111111111	101.004916666667
VTBW	13.7688	102.315491666667
VTCC	18.7713888888889	98.9627777777778
VTCH	19.3017166666667	97.9750555555556
VTCL	18.2721166666667	99.5040611111111
VTCN	18.8079138888889	100.783419444444
VTCP	18.1317138888889	100.164616666667
VTCT	19.9522222222222	99.8830555555555
VTPB	16.6760305555556	101.195108333333
VTPH	12.6303194444444	99.9534444444445
VTPI	15.2783333333333	100.3
VTPM	16.6998333333333	98.5434833333333
VTPO	17.2377777777778	99.8183333333333
VTPP	16.7829333333333	100.279125
VTPR	13.6686111111111	99.7313888888889
VTPT	16.8959861111111	99.2537277777778
VTSB	9.13613611111111	99.1390416666667
VTSC	6.52323888888889	101.744841666667
VTSE	10.7112027777778	99.3617111111111
VTSF	8.53961666666667	99.944725
VTSG	8.10016388888889	98.9853138888889
VTSH	7.18571944444444	100.608794444444
VTSM	9.54916666666667	100.0625
VTSN	8.46388888888889	99.9583333333333
VTSP	8.1125	98.3091666666667
VTSR	9.77762222222222	98.5854833333333
VTSS	6.93277777777778	100.395
VTST	7.50861666666667	99.615775
VTUD	17.3864361111111	102.788247222222
VTUI	17.1951416666667	104.118627777778
VTUJ	14.8692777777778	103.488888888889
VTUK	16.4645527777778	102.782275
VTUL	17.4391333333333	101.722063888889
VTUN	14.9333333333333	102.083333333333
VTUO	15.2267666666667	103.251225
VTUQ	14.9494972222222	102.312738888889
VTUU	15.251275	104.870227777778
VTUV	16.1167611111111	103.773797222222
VTUW	17.3853388888889	104.641888888889
VVBM	12.6683111111111	108.120272222222
VVCR	11.9954611111111	109.218413888889
VVCT	10.0838888888889	105.71
VVDB	21.3974805555556	103.007830555556
VVDN	16.0438888888889	108.200277777778
VVGL	21.040975	105.886011111111
VVNB	21.2216666666667	105.805555555556
VVNT	12.2274666666667	109.192322222222
VVPB	16.4006833333333	107.702494444444
VVPK	14.0045222222222	108.017158333333
VVPQ	10.1697222222222	103.993055555556
VVRG	9.94972222222222	105.133611111111
VVTS	10.8205555555556	106.660833333333
VVTX	19.9025	105.469166666667
VVVH	18.736725	105.670880555556
VYAN	19.7692694444444	94.026225
VYAS	21.9559666666667	96.4063472222222
VYBG	21.1789666666667	94.9303527777778
VYBM	24.2708305555556	97.2472777777778
VYBP	11.1493222222222	98.7362138888889
VYDW	14.097375	98.2067166666667
VYHH	20.7470444444444	96.7920222222222
VYHL	24.8988555555556	94.9142472222222
VYKG	21.30165	99.6357638888889
VYKI	25.9887472222222	95.6746888888889
VYKL	23.1888305555556	94.0508805555556
VYKT	10.0495972222222	98.538125
VYKU	21.4	94.1333333333333
VYLK	19.6917555555556	97.2148833333333
VYLS	22.9776361111111	97.7524111111111
VYMD	21.7010722222222	95.9774555555556
VYME	12.4400944444444	98.6211083333333
VYMK	25.3827888888889	97.3526666666667
VYMM	16.4448527777778	97.6608361111111
VYMS	20.5180916666667	99.2583888888889
VYMW	20.1535833333333	94.9685833333333
VYMY	22.2243805555556	95.0934472222222
VYNT	19.62355	96.201
VYPN	16.8121027777778	94.7738611111111
VYPT	27.330025	97.4261555555556
VYPU	21.4054111111111	95.1112777777778
VYST	20.9666666666667	95.9166666666667
VYSW	20.1327722222222	92.8726472222222
VYTD	18.4606527777778	94.2997055555555
VYTL	20.4848111111111	99.9348055555556
VYYY	16.9072666666667	96.1332388888889
PCIS	-2.77	-171.713333333333
PGRO	14.1743555555556	145.241125
PGSN	15.1202555555556	145.729983333333
PGUA	13.5838833333333	144.930058333333
PGUM	13.4839527777778	144.797133333333
PGWT	14.9992027777778	145.61935
PHBK	22.0227694444444	-159.785063888889
PHDH	21.579475	-158.197280555556
PHHI	21.4814472222222	-158.037838888889
PHJR	21.3073527777778	-158.070302777778
PHKO	19.7387666666667	-156.045630555556
PHLI	21.9759833333333	-159.338958333333
PHMU	20.0013277777778	-155.668108333333
PHNG	21.4504555555556	-157.76795
PHNL	21.3178277777778	-157.920263888889
PHNY	20.7856111111111	-156.951419444444
PHOG	20.89865	-156.430458333333
PHTO	19.7202638888889	-155.048469444444
PKMA	11.3408333333333	162.327833333333
PKMJ	7.06497222222222	171.272027777778
PKWA	8.72012222222222	167.731661111111
PLCH	1.98621111111111	-157.349641666667
PLPA	5.88333333333333	-162.066666666667
PMDY	28.2014833333333	-177.381308333333
PTKK	7.46189166666667	151.843016666667
PTPN	6.98508333333333	158.209805555556
PTRO	7.36730277777778	134.544277777778
PTSA	5.35697222222222	162.958388888889
PTYA	9.49891111111111	138.082483333333
PWAK	19.2824916666667	166.636661111111
RCAY	22.7816666666667	120.261666666667
RCDC	22.6723333333333	120.461666666667
RCFN	22.7552777777778	121.100277777778
RCGM	25.055	121.243333333333
RCKH	22.5769444444444	120.350277777778
RCKU	23.4544444444444	120.403333333333
RCKW	22.0408333333333	120.730277777778
RCMQ	24.265	120.620833333333
RCNN	22.9491666666667	120.211111111111
RCPO	24.8166666666667	120.933333333333
RCQC	23.5686111111111	119.628333333333
RCQS	22.81	121.198611111111
RCSQ	22.7	120.482222222222
RCSS	25.0697222222222	121.5525
RCTP	25.0802777777778	121.232222222222
RCYU	24.0233333333333	121.61
RJAA	35.7652777777778	140.385555555556
RJAF	36.1666666666667	137.922777777778
RJAH	36.1816666666667	140.414722222222
RJAW	24.7841666666667	141.3225
RJBB	34.4341666666667	135.232777777778
RJBD	33.6622222222222	135.364444444444
RJBE	34.6327777777778	135.223888888889
RJBH	34.3669444444444	132.413888888889
RJCB	42.7333333333333	143.217222222222
RJCC	42.7752777777778	141.6925
RJCH	41.77	140.821944444444
RJCJ	42.7944444444444	141.666388888889
RJCK	43.0408333333333	144.193055555556
RJCM	43.8805555555556	144.164166666667
RJCN	43.5775	144.96
RJCO	43.1175	141.381388888889
RJCT	42.8902777777778	143.158333333333
RJCW	45.4044444444445	141.802222222222
RJDC	33.93	131.278611111111
RJDT	34.285	129.330555555556
RJEB	44.3041666666667	143.404166666667
RJEC	43.6708333333333	142.4475
RJEO	42.0716666666667	139.432777777778
RJER	45.2419444444444	141.1875
RJFA	33.8813888888889	130.651666666667
RJFC	30.3855555555556	130.659166666667
RJFE	32.6663888888889	128.832777777778
RJFF	33.5844444444444	130.451666666667
RJFG	30.605	130.991666666667
RJFK	31.8033333333333	130.719444444444
RJFM	31.8772222222222	131.448611111111
RJFN	32.0836111111111	131.451388888889
RJFO	33.4794444444444	131.737222222222
RJFR	33.8455555555556	131.035
RJFS	33.1497222222222	130.302222222222
RJFT	32.8372222222222	130.855277777778
RJFU	32.9169444444444	129.913611111111
RJFY	31.3680555555556	130.838055555556
RJFZ	33.685	131.040277777778
RJGG	34.8583333333333	136.805277777778
RJKA	28.4308333333333	129.7125
RJKN	27.8363888888889	128.881388888889
RJNA	35.255	136.924444444444
RJNG	35.3944444444444	136.869444444444
RJNH	34.7502777777778	137.703055555556
RJNK	36.3938888888889	136.4075
RJNO	36.1783333333333	133.323333333333
RJNS	34.7961111111111	138.189444444444
RJNT	36.6483333333333	137.1875
RJNW	37.2933333333333	136.962222222222
RJNY	34.8127777777778	138.298055555556
RJOA	34.4361111111111	132.919444444444
RJOB	34.7569444444444	133.855277777778
RJOC	35.4136111111111	132.89
RJOH	35.4933333333333	133.239166666667
RJOI	34.145	132.246944444444
RJOK	33.5461111111111	133.669444444444
RJOM	33.8272222222222	132.699722222222
RJOO	34.7844444444444	135.439166666667
RJOR	35.53	134.165
RJOS	34.1322222222222	134.609166666667
RJOT	34.2141666666667	134.015555555556
RJOW	34.6763888888889	131.790277777778
RJSA	40.7333333333333	140.688611111111
RJSC	38.4119444444444	140.371111111111
RJSF	37.2275	140.428055555556
RJSH	40.5519444444444	141.467222222222
RJSI	39.4286111111111	141.135277777778
RJSK	39.6155555555556	140.218611111111
RJSM	40.7032222222222	141.368363888889
RJSN	37.9558333333333	139.111666666667
RJSR	40.1919444444444	140.371666666667
RJSS	38.1397222222222	140.916944444444
RJST	38.4030555555555	141.211944444444
RJSY	38.8122222222222	139.787222222222
RJTA	35.4547222222222	139.45
RJTH	33.115	139.785833333333
RJTJ	35.8419444444444	139.410555555556
RJTK	35.3982805555556	139.909816666667
RJTL	35.7988888888889	140.012222222222
RJTO	34.7819444444444	139.360277777778
RJTT	35.5533333333333	139.781111111111
RJTU	36.5144444444444	139.870833333333
RJTY	35.7486111111111	139.348611111111
RKJB	34.9913888888889	126.382777777778
RKJJ	35.1263888888889	126.808888888889
RKJK	35.9038888888889	126.615833333333
RKJM	34.7588888888889	126.381111111111
RKJU	35.8783333333333	127.116666666667
RKJY	34.8422222222222	127.617222222222
RKNN	37.75375	128.944916666667
RKNW	37.4380555555555	127.960277777778
RKNY	38.0613888888889	128.669166666667
RKPC	33.5122222222222	126.492777777778
RKPD	33.3983333333333	126.713055555556
RKPK	35.1805555555555	128.938055555556
RKPP	35.1716666666667	129.128333333333
RKPS	35.0886111111111	128.070555555556
RKPU	35.5933333333333	129.352222222222
RKSG	36.9623333333333	127.031072222222
RKSI	37.4625	126.439166666667
RKSM	37.4458333333333	127.114444444444
RKSO	37.0906166666667	127.029594444444
RKSS	37.5569444444444	126.7975
RKSW	37.24	127.006666666667
RKTH	35.9877777777778	129.418611111111
RKTI	37.03	127.885277777778
RKTL	36.7769444444444	129.461666666667
RKTN	35.8938888888889	128.658888888889
RKTP	36.7040555555556	126.486194444444
RKTU	36.7163888888889	127.499166666667
ROAH	26.1958333333333	127.645833333333
RODN	26.3556111111111	127.767633333333
ROIG	24.3963888888889	124.245
ROKJ	26.3636111111111	126.713888888889
ROMD	25.8466666666667	131.263611111111
ROMY	24.7827777777778	125.295
RORE	26.7225	127.786944444444
RORK	25.9447222222222	131.326944444444
RORS	24.8266666666667	125.144722222222
RORT	24.6538888888889	124.675277777778
ROTM	26.2706944444444	127.748047222222
ROYN	24.4675	122.979722222222
RPLB	14.79445	120.271366666667
RPLC	15.1859888888889	120.560325
RPLI	18.1777777777778	120.531263888889
RPLL	14.5099055555556	121.013691666667
RPLP	13.1619861111111	123.734561111111
RPLS	14.495	120.905
RPLV	15.4347222222222	121.091111111111
RPMB	6.1075	125.232777777778
RPMC	7.16473611111111	124.210341666667
RPMD	7.12552222222222	125.645777777778
RPME	8.95185277777778	125.478122222222
RPMG	8.60150833333333	123.341772222222
RPMJ	6.05306944444444	121.009730555556
RPML	8.41621111111111	124.611355555556
RPMN	5.04866944444444	119.74355
RPMO	8.17947777777778	123.842033333333
RPMP	7.82876666666667	123.4764
RPMR	6.058125	125.096197222222
RPMS	9.75781666666667	125.481072222222
RPMY	8.61220277777778	124.456494444444
RPMZ	6.92242222222222	122.059636111111
RPUB	16.3750888888889	120.618941666667
RPUF	14.9866666666667	120.493333333333
RPUH	12.3615444444444	121.046558333333
RPUL	13.955	121.125
RPUS	16.5945055555556	120.303122222222
RPUT	17.6435361111111	121.733136111111
RPUV	13.5757722222222	124.215027777778
RPUY	16.9297777777778	121.753308333333
RPVA	11.2276277777778	125.027755555556
RPVB	10.7766027777778	123.019102777778
RPVC	12.0769833333333	124.547797222222
RPVD	9.33417777777778	123.302080555556
RPVG	11.0365861111111	125.7428
RPVI	10.8330166666667	122.493358333333
RPVK	11.6803638888889	122.376475
RPVM	10.3075472222222	123.979419444444
RPVP	9.74211944444444	118.758730555556
RPVR	11.5975583333333	122.752963888889
RPVT	9.66419166666667	123.853630555556
